name,latitude,longitude,free_bikes,empty_slots
Ravenswood Ave & Lawrence Ave,41.96909,-87.674237,15,31
Lake Park Ave & 56th St,41.793242,-87.587782,11,8
Ada St & Washington Blvd,41.88283,-87.661206,4,10
Ashland Ave & Grace St,41.950687,-87.6687,8,7
Clark St & Wrightwood Ave,41.929546,-87.643118,9,5
Adler Planetarium,41.866095,-87.607267,16,22
Wolcott Ave & Polk St,41.871262,-87.673688,1,22
Racine Ave & Wrightwood Ave,41.928887,-87.658971,9,5
Halsted St & Wrightwood Ave,41.929143,-87.649077,4,11
Western Blvd & 48th Pl,41.805661,-87.683392,7,4
Keystone Ave & Fullerton Ave,41.92459,-87.72785,8,3
Halsted St & Roscoe St,41.94367,-87.64895,12,2
Broadway & Belmont Ave,41.940106,-87.645451,4,15
Paulina St & Montrose Ave,41.961507,-87.671387,5,10
Broadway & Berwyn Ave,41.978353,-87.659753,1,14
Broadway & Argyle St,41.973815,-87.65966,5,14
Southport Ave & Clark St,41.957081,-87.664199,2,8
Broadway & Wilson Ave,41.965221,-87.658139,11,12
Kedzie Ave & Palmer Ct,41.921525,-87.707322,6,7
Wells St & Evergreen Ave,41.906724,-87.63483,8,11
Kilbourn Ave & Irving Park Rd,41.953733,-87.740569,6,5
Halsted St & 59th St,41.787539,-87.644874,8,3
Knox Ave & Montrose Ave,41.960631,-87.745359,8,3
Wabash Ave & Grand Ave,41.891466,-87.626761,15,13
Chicago Ave & Washington St,42.032562,-87.679101,3,11
Benson Ave & Church St,42.048214,-87.683485,5,10
Columbus Dr & Randolph St,41.884728,-87.619521,26,29
Wabash Ave & Wacker Pl,41.886875,-87.62603,7,11
Michigan Ave & Madison St,41.882134,-87.625125,11,7
Cityfront Plaza Dr & Pioneer Ct,41.890573,-87.622072,16,15
Canal St & Monroe St,41.88169,-87.63953,2,23
Southport Ave & Wrightwood Ave,41.928773,-87.663913,7,8
State St & 29th St,41.841707,-87.626938,0,11
Canal St & Adams St,41.879255,-87.639904,24,21
Stony Island Ave & 75th St,41.7586696704,-87.586882871,2,9
Cottage Grove Ave & 43rd St,41.816499,-87.606582,9,2
Indiana Ave & 31st St,41.838842,-87.621857,7,4
Racine Ave & 15th St,41.861267,-87.656625,4,1
Ashland Ave & 13th St,41.865234,-87.666507,3,8
Ashland Ave & Grand Ave,41.891072,-87.666611,10,5
Halsted St & 35th St,41.830661,-87.647172,7,8
Austin Blvd & Chicago Ave,41.894887,-87.774704,4,3
Glenwood Ave & Touhy Ave,42.012701,-87.666058,6,9
Oakley Ave & Touhy Ave,42.012342,-87.688243,3,8
Western Ave & Howard St,42.018901,-87.690048,3,12
Greenview Ave & Jarvis Ave,42.015962,-87.66857,9,10
Bosworth Ave & Howard St,42.019537,-87.669563,7,4
Valli Produce - Evanston Plaza,42.039742,-87.699413,2,13
Pulaski Rd & Lake St,41.885409,-87.726491,4,7
Cicero Ave & Lake St,41.886841,-87.745261,2,9
Clark St & Columbia Ave,42.00445062934,-87.6724024047,5,10
Warren Park East,42.00454962194,-87.6806661451,4,7
California Ave & 23rd Pl,41.84910969176,-87.6951398068,1,10
Central Park Ave & 24th St,41.8481,-87.715068,7,4
Glenwood Ave & Morse Ave,42.00797192287,-87.6655023944,5,10
Western Ave & 28th St,41.84151770807,-87.6851314409,4,7
Albany Ave & 26th St,41.84447501366,-87.7020130128,1,10
Halsted St & Polk St,41.87184,-87.64664,0,18
900 W Harrison St,41.874754,-87.649807,0,16
Stony Island Ave & 67th St,41.77345849948,-87.5853397391,2,9
Clinton St & Polk St,41.87146651779,-87.6409491327,4,11
Orleans St & Merchandise Mart Plaza,41.888243,-87.63639,3,20
State St & Pearson St,41.897448,-87.628722,2,25
Wabash Ave & Adams St,41.87947235235,-87.6256886059,3,20
State St & Van Buren St,41.877181,-87.627844,3,13
Racine Ave & Congress Pkwy,41.87464,-87.65703,3,16
Ashland Ave & Augusta Blvd,41.899643,-87.6677,5,8
Dearborn St & Adams St,41.8793563587,-87.6297910363,0,19
Franklin St & Jackson Blvd,41.8777079559,-87.6353211408,16,23
Streeter Dr & Grand Ave,41.892278,-87.612043,28,6
Cannon Dr & Fullerton Ave,41.9267559875,-87.6344287848,3,12
Latrobe Ave & Chicago Ave,41.894745,-87.756895,5,2
Archer (Damen) Ave & 37th St,41.826712,-87.683144,11,0
Kedzie Ave & 21st St,41.85353363213,-87.7050730318,2,9
Fairfield Ave & Roosevelt Rd,41.866624,-87.694521,1,10
Ogden Ave & Roosevelt Rd,41.86650148316,-87.68469707,5,14
Kedzie Ave & Roosevelt Rd,41.86649278172,-87.7064961757,1,10
Kedzie Ave & Harrison St,41.87359967462,-87.7048707493,5,6
MLK Jr Dr & 63rd St,41.78008063659,-87.6159428567,5,6
Emerald Ave & 31st St,41.838198,-87.645143,3,8
Calumet Ave & 35th St,41.831379,-87.618034,11,4
DuSable Lake Shore Dr & Belmont Ave,41.940775,-87.639192,8,11
Clark St & Chicago Ave,41.89675,-87.63089,4,15
Cottage Grove Ave & 47th St,41.809855,-87.606755,5,10
Halsted St & Clybourn Ave,41.909668,-87.648128,13,12
Lincoln Ave & Addison St,41.946176,-87.673308,11,8
Ashland Ave & Blackhawk St,41.907066,-87.667252,9,5
Burling St & Diversey Pkwy,41.93314,-87.64776,13,6
Dusable Harbor,41.886976,-87.612813,18,20
LaSalle St & Washington St,41.882664,-87.63253,0,14
Clinton St & Washington Blvd,41.88338,-87.64117,16,13
Millennium Park,41.8810317,-87.62408432,18,27
Sheffield Ave & Willow St,41.913688,-87.652855,3,7
Carpenter St & Huron St,41.894556,-87.653449,8,10
Stony Island Ave & 64th St,41.778881,-87.586647,4,7
Clark St & Armitage Ave,41.918306,-87.636282,11,16
Field Museum,41.865312,-87.617867,27,15
Desplaines St & Randolph St,41.88461618962,-87.6445705849,9,11
Racine Ave & Garfield Blvd,41.794228,-87.655073,3,8
Ashland Ave & Garfield Blvd,41.792822,-87.664429,2,9
Ashland Ave & 50th St,41.803023,-87.664699,10,1
Damen Ave & 51st St,41.800908,-87.674684,5,2
Seeley Ave & Garfield Blvd,41.794087,-87.675478,7,4
Throop St & 52nd St,41.799659,-87.657195,5,1
Hoyne Ave & 47th St,41.808227,-87.67718,6,5
Central Ave & Chicago Ave,41.894958,-87.764902,3,8
Elizabeth St & 47th St,41.80839,-87.656526,9,2
Ashland Ave & McDowell Ave,41.80887,-87.66454,5,6
Wolcott (Ravenswood) Ave & Montrose Ave,41.961406,-87.676169,2,13
Clark St & Montrose Ave,41.961588,-87.666036,7,12
Sedgwick St & Schiller St,41.907626,-87.638566,8,5
MLK Jr Dr & 29th St,41.842052,-87.617,14,4
Sheridan Rd & Montrose Ave,41.96167,-87.65464,8,14
Sangamon St & Washington Blvd,41.883165,-87.6511,5,9
Loomis St & Jackson Blvd,41.877945,-87.662007,14,2
Indiana Ave & 26th St,41.845687,-87.622481,2,13
Larrabee St & Webster Ave,41.921822,-87.64414,2,17
Mies van der Rohe Way & Chestnut St,41.8985866514,-87.6219152258,1,18
McClurg Ct & Erie St,41.894503,-87.617854,6,23
Sedgwick St & Webster Ave,41.922167,-87.638888,8,7
Dearborn Pkwy & Delaware Pl,41.898969,-87.629912,19,0
Clark St & Lincoln Ave,41.915689,-87.6346,5,18
State St & 33rd St,41.834734,-87.625813,2,13
Calumet Ave & 33rd St,41.8349,-87.61793,9,0
Michigan Ave & 8th St,41.872773,-87.623981,27,15
California Ave & Cortez St,41.900363,-87.696704,5,10
Kingsbury St & Kinzie St,41.88917683258,-87.6385057718,3,27
Damen Ave & Division St,41.903266,-87.678435,9,10
Morgan Ave & 14th Pl,41.862378,-87.651062,3,8
Racine Ave & 13th St,41.865054,-87.656959,2,11
Keystone Ave & Montrose Ave,41.96110801623,-87.7289701012,7,4
Avers Ave & Belmont Ave,41.939408,-87.723574,8,3
Clybourn Ave & Division St,41.904613,-87.640552,1,14
Troy St & Elston Ave,41.94524356848,-87.7066499009,4,11
Talman Ave & Addison St,41.9466358306,-87.694614758,13,2
Leavitt St & Addison St,41.946655,-87.683359,9,5
Western Ave & Roscoe St,41.943034,-87.687288,1,10
Michigan Ave & Pearson St,41.89766,-87.62351,1,22
Larrabee St & North Ave,41.91021,-87.6435,9,7
Sheffield Ave & Kingsbury St,41.910522,-87.653106,2,13
Aberdeen St & Jackson Blvd,41.87772613,-87.65478743,5,18
May St & Taylor St,41.8694821,-87.6554864,5,7
Orleans St & Elm St,41.902924,-87.637715,11,3
Larrabee St & Menomonee St,41.91468,-87.64332,4,8
Noble St & Milwaukee Ave,41.90068,-87.6626,1,12
State St & Pershing Rd,41.82301523798,-87.6265680185,1,9
Lake Park Ave & 35th St,41.83127423549,-87.6087991946,6,13
Wentworth Ave & 35th St,41.830777,-87.632504,4,11
Wentworth Ave & 33rd St,41.83452988563,-87.6318229814,1,13
Shields Ave & 31st St,41.838464,-87.635406,0,15
Shields Ave & 28th Pl,41.842733,-87.635491,7,4
Cottage Grove Ave & 71st St,41.76571903697,-87.604959713,2,9
Shields Ave & 43rd St,41.81620767856,-87.6348193497,9,2
Union Ave & Root St,41.819102,-87.643278,8,2
Walsh Park,41.91461,-87.667968,11,12
California Ave & Lake St,41.88445395657,-87.6962981368,4,7
Calumet Ave & 21st St,41.85418424947,-87.6191537415,8,7
Kedzie Ave & Chicago Ave,41.89546530305,-87.7061278837,5,6
Western Ave & Walton St,41.89841768945,-87.6865960164,6,17
Kedzie Ave & Lake St,41.88460328501,-87.7063037436,1,14
Calumet Ave & 71st St,41.76550800581,-87.616917925,4,7
Perry Ave & 69th St,41.76929308995,-87.6281959291,3,8
Racine Ave & Randolph St,41.884069,-87.656853,6,13
Yates Blvd & 75th St,41.758768,-87.56644,3,8
Jeffery Blvd & 76th St,41.75712006802,-87.5758393587,5,6
Clark St & 9th St (AMLI),41.870816,-87.631246,4,8
Aberdeen St & Monroe St,41.880419,-87.655519,10,6
Daley Center Plaza,41.884241,-87.629634,5,32
Eckhart Park,41.89637337,-87.66098386,10,7
Milwaukee Ave & Grand Ave,41.891578,-87.648384,10,8
Michigan Ave & Oak St,41.90096039,-87.62377664,3,18
Field Blvd & South Water St,41.88634906269,-87.6175165471,6,9
MLK Jr Dr & 83rd St,41.743116,-87.6148,2,9
Ellis Ave & 83rd St,41.744123,-87.599034,1,10
Cottage Grove Ave & 83rd St,41.743441,-87.604836,3,8
Phillips Ave & 83rd St,41.744531,-87.56506,3,8
Stony Island Ave & 82nd St,41.746559,-87.586005,6,5
Exchange Ave & 79th St,41.751731,-87.552812,6,5
Commercial Ave & 83rd St,41.744615,-87.551208,6,5
South Chicago Ave & 83rd St,41.743921,-87.575225,5,6
Milwaukee Ave & Cuyler Ave,41.954468,-87.749594,9,2
Clarendon Ave & Junior Ter,41.961004,-87.649603,12,11
Ravenswood Ave & Irving Park Rd,41.95469,-87.67393,6,12
Shore Dr & 55th St,41.795212,-87.580715,12,7
Ashland Ave & Belle Plaine Ave,41.956057,-87.668835,1,10
Morgan St & Polk St,41.871737,-87.65103,5,13
Sheridan Rd & Irving Park Rd,41.954245,-87.654406,7,18
Lincoln Ave & Sunnyside Ave,41.963004,-87.684781,9,6
Damen Ave & Leland Ave,41.967094,-87.679028,5,9
Montrose Harbor,41.963982,-87.638181,7,24
Woodlawn Ave & 55th St,41.795264,-87.596471,8,11
Wolcott Ave & Fargo Ave,42.016977,-87.677725,2,9
Conservatory Dr & Lake St,41.885502,-87.716866,2,9
Albany Ave & Bloomingdale Ave,41.91402671273,-87.705126462,10,4
Spaulding Ave & Division St,41.90270659438,-87.709219571,3,7
Paulina St & Howard St,42.019159,-87.673573,12,7
Ridge Blvd & Howard St,42.019276,-87.68452,8,3
Clark St & Jarvis Ave,42.015963,-87.675005,2,9
Broadway & Thorndale Ave,41.98974251144,-87.6601406209,9,9
Aberdeen St & Randolph St,41.884114,-87.654264,2,13
Orleans St & Chestnut St (NEXT Apts),41.898203,-87.637536,8,7
LaSalle Dr & Huron St,41.894877,-87.632326,7,11
Delano Ct & Roosevelt Rd,41.867491,-87.63219,7,9
Dearborn St & Van Buren St,41.876268,-87.629155,2,3
Warren Park West,42.001785,-87.688829,6,5
Sheridan Rd & Loyola Ave,42.00104377979,-87.6611982433,3,20
Western Ave & Granville Ave,41.99416136902,-87.689438282,7,4
Clark St & Schreiber Ave,41.99925182186,-87.6713773393,3,12
Broadway & Granville Ave,41.9947796884,-87.6602845349,10,12
Maplewood Ave & Peterson Ave,41.99023602867,-87.6933696402,6,5
2112 W Peterson Ave,41.991178,-87.683593,2,9
MLK Jr Dr & Pershing Rd,41.8246,-87.61678,2,13
State St & 19th St,41.856594,-87.627542,5,10
Theater on the Lake,41.926277,-87.630834,12,18
Clark St & Elm St,41.902973,-87.63128,17,20
Rush St & Cedar St,41.90230870122,-87.627690528,7,3
May St & Cullerton St,41.855136,-87.654127,1,0
Clinton St & 18th St,41.85795,-87.640826,2,11
Wood St & Augusta Blvd,41.899181,-87.6722,6,9
Winthrop Ave & Lawrence Ave,41.968812,-87.657659,3,12
Wells St & Elm St,41.903222,-87.634324,19,2
Damen Ave & Thomas St (Augusta Blvd),41.901315,-87.677409,8,12
Ritchie Ct & Banks St,41.906866,-87.626217,10,2
LaSalle St & Illinois St,41.890762,-87.631697,14,15
Ogden Ave & Race Ave,41.891795,-87.658751,7,5
Stave St & Armitage Ave,41.917741,-87.691392,0,11
Rhodes Ave & 71st St,41.766,-87.611726,3,8
Greenview Ave & Fullerton Ave,41.92533,-87.6658,14,1
Leavitt St & Chicago Ave,41.895501,-87.682017,4,15
Jeffery Blvd & 71st St,41.76663823695,-87.5764501141,5,6
Wilton Ave & Diversey Pkwy*,41.932418,-87.652705,2,30
South Shore Dr & 71st St,41.7664094567,-87.5656875719,5,10
Racine Ave & 18th St,41.858166,-87.656495,7,4
Morgan St & 18th St,41.858086,-87.651073,4,1
Honore St & Division St,41.903119,-87.673935,11,11
Throop St & Taylor St,41.868968,-87.659141,5,10
McCormick Place,41.8513751729,-87.6188346489,15,11
Kimbark Ave & 53rd St,41.799568,-87.594747,13,6
Sheridan Rd & Lawrence Ave,41.969517,-87.654691,9,10
Wabash Ave & 9th St,41.870769,-87.625734,8,8
Sheffield Ave & Webster Ave,41.92154,-87.653818,9,10
Stockton Dr & Wrightwood Ave,41.93132,-87.638742,5,10
Ellis Ave & 58th St,41.788746,-87.601334,9,10
DuSable Lake Shore Dr & Diversey Pkwy,41.932588,-87.636427,3,20
Indiana Ave & 40th St,41.82168,-87.6216,2,9
MLK Jr Dr & 47th St,41.809851,-87.616279,0,11
Western Ave & 21st St,41.854109,-87.685838,10,5
Paulina St & 18th St,41.857901,-87.668745,5,10
Prairie Ave & Garfield Blvd,41.794853,-87.618691,3,8
Emerald Ave & 28th St,41.84358,-87.645368,6,9
Halsted St & Archer Ave,41.847203,-87.646795,1,14
Normal Ave & Archer Ave,41.849527,-87.640591,0,11
DuSable Lake Shore Dr & Monroe St,41.880958,-87.616743,1,38
Canal St & Jackson Blvd,41.877245,-87.639366,25,26
Wabash Ave & 16th St,41.860384,-87.625813,13,21
South Chicago Ave & Elliot Ave,41.747363,-87.580046,3,3
Lincolnwood Dr & Central St,42.064854,-87.715297,4,11
Dodge Ave & Mulford St,42.023463,-87.699595,5,10
Evanston Civic Center,42.057044,-87.686554,9,6
Sheridan Rd & Columbia Ave,42.004583,-87.661406,6,9
Central Ave & Madison St,41.880121,-87.763238,11,0
Laramie Ave & Gladys Ave,41.875806,-87.755285,3,8
Laramie Ave & Madison St,41.880207,-87.755337,4,7
Central Ave & Harrison St,41.872993,-87.764499,2,9
Damen Ave & Pershing Rd,41.823192,-87.676597,1,10
Ashland Ave & Pershing Rd,41.823465,-87.665577,0,7
Austin Blvd & Madison St,41.880281,-87.774453,7,4
Kostner Ave & Adams St,41.877917,-87.735737,2,9
Morgan St & Pershing Rd,41.823613,-87.650931,1,6
Marshfield Ave & 44th St,41.813996,-87.666589,3,8
Clinton St & Tilden St,41.875885,-87.640795,2,20
Elmwood Ave & Austin St,42.025784,-87.684107,5,10
Blackstone Ave & Hyde Park Blvd,41.802562,-87.590368,7,12
Ogden Ave & Congress Pkwy,41.87501,-87.67328,4,7
California Ave & Milwaukee Ave,41.922695,-87.697153,6,9
Rush St & Hubbard St,41.890173,-87.626185,1,22
Clark St & North Ave,41.911974,-87.631942,2,12
Damen Ave & Chicago Ave,41.895769,-87.67722,8,11
Blue Island Ave & 18th St,41.857556,-87.661535,11,4
Canal St & Taylor St,41.870257,-87.639474,9,4
Calumet Ave & 51st St,41.80229465088,-87.6180535802,2,9
Dorchester Ave & 49th St,41.805772,-87.592464,3,12
Cornell Ave & Hyde Park Blvd,41.802406,-87.586924,18,1
Prairie Ave & 43rd St,41.81665889302,-87.6194124619,2,13
Halsted St & 47th Pl,41.80813391481,-87.6456165545,5,6
Princeton Ave & 47th St,41.80931770924,-87.633449288,4,7
Woodlawn Ave & Lake Park Ave,41.81409271048,-87.5970051479,6,9
California Ave & Fletcher St,41.93842879148,-87.698007756,7,12
Ellis Ave & 53rd St,41.79933626261,-87.6009581145,6,4
Lake Park Ave & 53rd St,41.79949429373,-87.5864498959,4,11
Kosciuszko Park,41.93058537138,-87.7237773635,5,10
Southport Ave & Irving Park Rd,41.954177,-87.664358,2,12
Lakeview Ave & Fullerton Pkwy,41.925858,-87.638973,6,11
Leavitt St & Lawrence Ave,41.968885,-87.684001,5,14
Damen Ave & Charleston St,41.920082,-87.677855,5,6
Damen Ave & Sunnyside Ave,41.96325,-87.679258,7,12
Elston Ave & Wabansia Ave,41.912919,-87.664169,7,16
Ravenswood Ave & Berteau Ave,41.957921,-87.673567,3,12
Shedd Aquarium,41.86722595682,-87.6153553902,13,37
Ashland Ave & Archer Ave,41.83920868403,-87.6656098589,0,15
Wood St & 35th St,41.83010465416,-87.6702983089,1,9
Loomis St & Archer Ave,41.84163253965,-87.6574349533,2,6
Larrabee St & Oak St,41.90021949323,-87.6429854676,15,3
Western Ave & Monroe St,41.8797877089,-87.686112808,7,8
Western Ave & Congress Pkwy,41.87474885079,-87.6864452757,8,11
Halsted St & 51st St,41.80183164049,-87.645213904,9,1
Princeton Ave & Garfield Blvd,41.794982,-87.633124,6,5
Halsted St & 56th St,41.79292964599,-87.6449900565,4,7
Halsted St & 63rd St,41.77938114228,-87.6446208145,9,2
Phillips Ave & 79th St,41.75182,-87.565211,3,8
Bennett Ave & 79th St,41.751785,-87.578496,2,9
Sheridan Rd & Noyes St (NU),42.058239,-87.677432,0,13
State St & 79th St,41.750794,-87.624424,2,9
State St & 76th St,41.756971,-87.624621,6,5
Vernon Ave & 75th St,41.758361,-87.614138,2,9
Evans Ave & 75th St,41.75849,-87.60641,4,3
Stony Island Ave & South Chicago Ave,41.751173,-87.585337,6,5
Greenwood Ave & 79th St,41.751294,-87.597552,4,7
Cottage Grove Ave & 78th St,41.753174,-87.605026,3,7
Vernon Ave & 79th St,41.75094,-87.61379,9,2
Dayton St & North Ave,41.9105780349,-87.6494219288,6,12
Wood St & Milwaukee Ave,41.907655,-87.672552,16,3
Logan Blvd & Elston Ave,41.929465,-87.684158,7,19
Clinton St & Lake St,41.885637,-87.641823,3,10
Sheffield Ave & Fullerton Ave,41.9256018819,-87.6537080423,0,27
Greenwood Ave & 47th St,41.809835,-87.599383,1,14
Ashland Ave & Wellington Ave,41.936083,-87.669807,11,7
Clarendon Ave & Leland Ave,41.967968,-87.650001,3,12
Broadway & Sheridan Rd,41.952833,-87.649993,9,6
Lincoln Ave & Waveland Ave,41.948797,-87.675278,9,6
Pine Grove Ave & Irving Park Rd,41.954383,-87.648043,14,0
Chicago Ave & Sheridan Rd,42.050491,-87.677821,2,13
Central St & Girard Ave,42.064313,-87.686152,1,13
Central Park Ave & North Ave,41.90965687563,-87.7166319516,2,13
Troy St & North Ave,41.90976930169,-87.7052804871,3,11
Humboldt Blvd & Armitage Ave,41.91751339399,-87.7018089555,2,17
Campbell Ave & Fullerton Ave,41.92463247165,-87.6893070063,4,11
Winchester Ave & Elston Ave,41.92409085038,-87.6764600747,8,7
California Ave & Altgeld St,41.92669,-87.697668,6,9
Central Park Ave & Elbridge Ave,41.93533728263,-87.7168892935,4,11
Richmond St & Diversey Ave,41.93190196886,-87.7011951301,6,9
Kildare Ave & Montrose Ave,41.96108,-87.73569,5,10
Malcolm X College,41.877618,-87.673895,7,11
St. Louis Ave & Balmoral Ave,41.98039423475,-87.7161149615,6,9
Budlong Woods Library,41.98366470886,-87.6964225611,5,6
Orleans St & Hubbard St,41.890028,-87.636618,1,9
Marine Dr & Ainslie St,41.9716,-87.650154,4,18
Damen Ave & Foster Ave,41.97561480459,-87.6794590387,3,12
Western Ave & Lunt Ave,42.0085943972,-87.6904922389,5,10
Ridge Blvd & Touhy Ave,42.01213227742,-87.6829126443,4,7
Broadway & Ridge Ave,41.9840446107,-87.6602738295,2,13
Clark St & Bryn Mawr Ave,41.983593,-87.669154,13,2
Winchester (Ravenswood) Ave & Balmoral Ave,41.979762,-87.67753,7,8
Michigan Ave & 14th St,41.864059,-87.623727,12,4
Canal St & Harrison St,41.874255,-87.639573,2,13
Franklin St & Lake St,41.885837,-87.6355,14,12
Clark St & Grace St,41.95078,-87.659172,4,19
Ashland Ave & Wrightwood Ave,41.92883,-87.668507,8,6
Damen Ave & Coulter St,41.8492,-87.67564,1,6
Campbell Ave & North Ave,41.910535,-87.689556,11,4
Rush St & Superior St,41.89576474564,-87.6259080327,1,22
Damen Ave & Wellington Ave,41.93588,-87.67842,2,13
Damen Ave & Clybourn Ave,41.931931,-87.677856,8,7
Dodge Ave & Church St,42.048308,-87.698224,3,11
Leavitt St & Archer Ave,41.82879201994,-87.6806044594,5,10
Stony Island Ave & 71st St,41.7664929373,-87.5864608775,5,6
South Shore Dr & 67th St,41.773643,-87.567514,5,10
Sheridan Rd & Greenleaf Ave,42.01058656284,-87.6624120948,1,14
Clark St & Touhy Ave,42.01256011541,-87.6743671152,4,11
Jeffery Blvd & 67th St,41.77351755125,-87.5771428255,4,7
Cottage Grove Ave & 51st St,41.803038,-87.606615,4,11
Larrabee St & Division St,41.90348607004,-87.6433534936,14,7
California Ave & Division St,41.903029,-87.697474,8,11
Damen Ave & Madison St,41.88137,-87.67493,5,9
Wells St & Hubbard St,41.889906,-87.634266,6,25
Ashland Ave & Division St,41.90345,-87.667747,4,22
Wells St & 19th St,41.856802,-87.633879,2,9
Damen Ave & Cortland St,41.915983,-87.677335,8,10
Wells St & Concord Ln,41.912133,-87.634656,5,14
Larrabee St & Armitage Ave,41.918084,-87.643749,6,7
Western Ave & 24th St,41.84847,-87.685109,3,4
Morgan St & 31st St,41.8378,-87.65114,6,4
LaSalle St & Jackson Blvd,41.878166,-87.631929,0,14
Halsted St & Maxwell St,41.864883,-87.647071,7,6
Wood St & Hubbard St,41.889899,-87.671473,8,11
Michigan Ave & Jackson Blvd,41.87785,-87.62408,6,17
Franklin St & Monroe St,41.880317,-87.635185,0,31
Rhodes Ave & 32nd St,41.836208,-87.613533,8,0
Halsted St & 37th St,41.827059,-87.64572,3,8
Hermitage Ave & Polk St,41.871514,-87.669886,1,14
Kedzie Ave & Milwaukee Ave,41.929567,-87.707857,14,20
Lake Park Ave & 47th St,41.809443,-87.591875,1,14
Cottage Grove Ave & Oakwood Blvd,41.822985,-87.6071,2,13
Stetson Ave & South Water St,41.886835,-87.62232,1,18
DuSable Lake Shore Dr & North Blvd,41.911722,-87.626804,3,32
Wabash Ave & Roosevelt Rd,41.867227,-87.625961,5,18
Halsted St & Roosevelt Rd,41.867324,-87.648625,6,16
Ogden Ave & Chicago Ave,41.896362458,-87.6540612729,10,4
Clinton St & Roosevelt Rd,41.8671177825,-87.6410879593,9,6
Desplaines St & Kinzie St,41.888716036,-87.6444478533,15,8
Clark St & Randolph St,41.884576228,-87.63188991,4,37
Clark St & Ida B Wells Dr,41.8759326655,-87.6305845355,7,27
Wells St & Huron St,41.894722,-87.634362,17,7
Kenton Ave & Madison St,41.880708,-87.741018,4,7
Kostner Ave & Lake St,41.885928,-87.73541,8,2
Karlov Ave & Madison St,41.88085,-87.727907,5,6
Central Park Blvd & 5th Ave,41.875679,-87.71547,4,7
Central Ave & Lake St,41.887664,-87.765469,3,8
Laramie Ave & Kinzie St,41.887832,-87.755527,5,6
Cicero Ave & Quincy St,41.877613,-87.745405,2,9
Cicero Ave & Flournoy St,41.872131,-87.746619,4,7
Sheffield Ave & Waveland Ave,41.949399,-87.654529,5,22
Western Ave & Winnebago Ave,41.91552,-87.687022,2,13
Sedgwick St & Huron St,41.894666,-87.638437,13,13
Dearborn St & Erie St,41.893992,-87.629318,20,6
Ashland Ave & Lake St,41.88592,-87.66717,10,8
Sedgwick St & North Ave,41.911386,-87.638677,10,8
Cottage Grove Ave & 67th St,41.77372095205,-87.60563486,1,10
Dorchester Ave & 63rd St,41.7804056457,-87.5914159893,7,4
MLK Jr Dr & 56th St,41.79342945658,-87.6158532619,2,9
Ellis Ave & 55th St,41.79430062054,-87.6014497734,0,19
University Ave & 57th St,41.791478,-87.599861,1,29
DuSable Museum,41.79156801058,-87.6078521774,3,8
Harper Ave & 59th St,41.78794281287,-87.5883151702,9,6
Museum of Science and Industry,41.79172820953,-87.583945009,12,15
Ellis Ave & 60th St,41.78509714636,-87.6010727606,19,0
Seeley Ave & Roscoe St,41.943403,-87.679618,9,2
Leavitt St & Armitage Ave,41.917805,-87.682437,11,0
Clark St & Schiller St,41.907993,-87.631501,15,3
Sheffield Ave & Wrightwood Ave,41.928712,-87.653833,12,19
Broadway & Cornelia Ave,41.945529,-87.646439,16,6
Broadway & Waveland Ave,41.949074,-87.648636,7,8
Western Ave & Division St,41.902893,-87.687275,8,15
Sheridan Rd & Buena Ave,41.958494,-87.654966,11,8
Southport Ave & Clybourn Ave,41.920771,-87.663712,12,3
Vincennes Ave & 75th St,41.75797,-87.63121,5,2
Woodlawn Ave & 75th St,41.75916,-87.595751,4,6
Marshfield Ave & 59th St,41.786833,-87.666215,5,6
Racine Ave & 61st St,41.783189,-87.654372,4,7
Ashland Ave & 63rd St,41.779374,-87.664843,5,6
Ashland Ave & 66th St,41.774074,-87.663815,2,5
May St & 69th St,41.768938,-87.652934,1,10
Southport Ave & Roscoe St,41.943739,-87.66402,14,3
Damen Ave & Melrose Ave,41.9406,-87.6785,6,9
Southport Ave & Waveland Ave,41.94815,-87.66394,6,16
Racine Ave & Belmont Ave,41.939743,-87.658865,10,5
Halsted St & Dickens Ave,41.919936,-87.64883,15,8
Halsted St & Willow St,41.913865,-87.648755,6,12
Clifton Ave & Armitage Ave,41.918216,-87.656936,5,9
Clark St & Drummond Pl,41.931248,-87.644336,8,14
Halsted St & 69th St,41.76906172032,-87.6446135779,6,5
Wentworth Ave & 63rd St,41.78007963264,-87.6297463052,4,7
University Library (NU),42.052939,-87.673447,10,5
Fort Dearborn Dr & 31st St,41.838556,-87.608218,4,21
Lincoln Ave & Diversey Pkwy,41.932225,-87.658617,8,7
Central St Metra,42.063598,-87.69873,4,11
Clark St & Wellington Ave,41.9364968219,-87.6475386582,4,9
Claremont Ave & Hirsch St,41.907781,-87.685854,3,8
Milwaukee Ave & Wabansia Ave,41.912616,-87.681391,12,3
South Shore Dr & 74th St,41.76218896038,-87.55927465,3,8
Fairbanks St & Superior St,41.895748,-87.620104,0,10
Rainbow Beach,41.75787144829,-87.54938625,1,14
Larrabee St & Kingsbury St,41.897764,-87.642884,2,39
Dearborn St & Monroe St,41.881319815,-87.6295209193,0,39
Wells St & Walton St,41.89993001,-87.63443007,12,3
Michigan Ave & Ida B Wells Dr,41.876243,-87.624426,3,11
Wabash Ave & Cermak Rd,41.852619,-87.626488,3,8
LaSalle St & Adams St,41.87934437346,-87.6319852213,0,8
Federal St & Polk St,41.87207763285,-87.6295437729,13,2
State St & Harrison St,41.874053,-87.627716,6,17
Lakefront Trail & Wilson Ave,41.965845,-87.645361,6,9
Drake Ave & Addison St,41.947326,-87.717582,9,6
Pulaski Rd & Eddy St,41.946264,-87.731023,7,4
California Ave & Byron St,41.95216219326,-87.698051113,15,4
Oakley Ave & Irving Park Rd,41.95434085219,-87.6860796243,7,8
Sawyer Ave & Irving Park Rd,41.95358617895,-87.7093107999,13,2
Monticello Ave & Irving Park Rd,41.95400483876,-87.7191281797,13,1
Avondale Ave & Irving Park Rd,41.953393,-87.732002,9,9
California Ave & Montrose Ave,41.961068,-87.695439,12,3
Albany Ave & Montrose Ave,41.961041,-87.705866,6,5
Lincoln Ave & Winona St,41.97491129677,-87.6925025594,13,2
Kedzie Ave & Foster Ave,41.975672,-87.709261,3,8
Francisco Ave & Foster Ave,41.97563272521,-87.7014194389,0,15
Kedzie Ave & Leland Ave,41.96668636205,-87.7080519806,3,12
Manor Ave & Leland Ave,41.965875,-87.700825,2,9
Christiana Ave & Lawrence Ave,41.96835449363,-87.7118306675,7,8
Washtenaw Ave & Lawrence Ave,41.968987,-87.696027,7,8
Rockwell St & Eastwood Ave,41.96590013976,-87.6936384935,0,14
Drake Ave & Montrose Ave,41.96115407569,-87.7165690733,2,13
Michigan Ave & Washington St,41.8839840647265,-87.6246839761734,22,18
Kingsbury St & Erie St,41.89380805624359,-87.64169722795485,14,8
Cherry Ave & Blackhawk St,41.907221,-87.655618,6,8
Franklin St & Illinois St,41.89102331025185,-87.63547986745834,5,6
Spaulding Ave & Armitage Ave,41.917108034789315,-87.71022096276283,6,9
Greenview Ave & Diversey Pkwy,41.93258963429789,-87.66593635082245,9,5
Franklin St & Adams St (Temp),41.87943409140013,-87.63550400733948,3,10
Financial Pl & Ida B Wells Dr,41.8750236280333,-87.6330940425396,22,9
Sacramento Blvd & Franklin Blvd,41.89046879243862,-87.70260751247406,3,8
Wentworth Ave & 24th St,41.85008369347577,-87.6321405172348,10,3
Lincoln Park Conservatory,41.92393131136619,-87.63582453131676,4,25
California Ave & Francis Pl,41.91849115368695,-87.69742280244827,4,10
Franklin St & Chicago Ave,41.896746973093805,-87.63566762208939,7,14
DuSable Lake Shore Dr & Wellington Ave,41.9366884494997,-87.63682901859283,2,13
Peoria St & Jackson Blvd,41.8776415962753,-87.64961779117584,15,2
Fairbanks Ct & Grand Ave,41.89184737210993,-87.62058019638062,8,7
Laflin St & Cullerton St,41.85491457576575,-87.66355991363525,5,9
Washtenaw Ave & Ogden Ave,41.86193049278259,-87.69345045089722,8,7
Wentworth Ave & Cermak Rd,41.85308455741279,-87.63193130493164,14,5
Central Park Ave & Ogden Ave,41.854063503874464,-87.71511733531952,2,13
Broadway & Barry Ave,41.93758231600629,-87.6440978050232,5,13
Lincoln Ave & Belle Plaine Ave,41.95600355078549,-87.68016144633293,5,10
Eggleston Ave & 69th St,41.768898,-87.635876,8,2
Michigan Ave & 71st St,41.765286,-87.621748,4,3
Stewart Ave & 63rd St,41.779835,-87.634774,7,4
Western Ave & Fillmore St,41.868563,-87.686234,9,2
Carpenter St & 63rd St,41.77987,-87.650919,1,6
State St & 54th St,41.796642,-87.625923,4,7
Hoyne Ave & Balmoral Ave,41.979851,-87.681932,12,3
Leavitt St & Belmont Ave,41.939354,-87.683282,10,5
Central Park Ave & Bloomingdale Ave,41.914166,-87.716755,3,8
Bernard St & Elston Ave,41.949923,-87.713949,7,4
Clark St & Newport St,41.94454,-87.654678,8,7
Wood St & Chicago Ave,41.895634,-87.672069,4,10
Racine Ave & Washington Blvd,41.883073,-87.656952,3,8
Smith Park,41.892048,-87.689397,3,12
Leavitt St & Division St,41.902997,-87.683825,3,12
Damen Ave & Walnut (Lake) St,41.885951,-87.677009,10,5
State St & 35th St,41.8310363140161,-87.62679755687714,3,16
Milwaukee Ave & Rockwell St,41.92019556200566,-87.69265919923781,3,16
Stewart Ave & 83rd St,41.743717,-87.634088,2,13
Pine Grove Ave & Waveland Ave,41.94947274088333,-87.64645278453827,12,10
Halsted St & 73rd St,41.76160543804394,-87.64416097666071,5,10
Halsted St & 78th St,41.75248701249013,-87.6439021574879,9,5
Leavitt St & North Ave,41.91050936666395,-87.6823890209198,14,1
Ashland Ave & 78th St,41.75220484941116,-87.66369938850403,8,7
East End Ave & 87th St,41.73681521440671,-87.58280128240585,4,11
Summit Ave & 86th St,41.737848476733404,-87.64489978551863,10,5
Loomis Blvd & 84th St,41.741486528618054,-87.65841007232666,6,9
Prospect Sq & 91st St,41.7282338,-87.6675239,8,7
Elizabeth St & 92nd St,41.726798963701185,-87.65429019927979,10,5
State St & 95th St,41.7218499,-87.6228544,5,9
Marquette Ave & 89th St,41.733668790714724,-87.55834221839905,11,4
Houston Ave & 92nd St,41.72820421535798,-87.54970014095306,6,7
Baltimore Ave & 87th St,41.737335600416664,-87.54851460456847,8,7
Dauphin Ave & 103rd St,41.7072503677818,-87.60766267776489,10,5
Indiana Ave & 103rd St,41.70717027117756,-87.6184719800949,4,11
Ashland Ave & 74th St,41.75923602425868,-87.66347408294678,6,9
Oglesby Ave & 100th St,41.713397484422444,-87.56584167480469,5,10
Cottage Grove Ave & 111th Pl,41.69170975847015,-87.61000156402588,5,10
Vernon Ave & 107th St,41.70012137923888,-87.61225998401642,9,6
Halsted St & 96th St,41.719712183618824,-87.6430195569992,5,10
Eggleston Ave & 92nd St,41.727575659299575,-87.63482809066771,9,6
Constance Ave & 95th St,41.72229074095262,-87.57896840572357,5,10
Greenwood Ave & 91st St,41.728264268162725,-87.59729862213135,7,8
Greenwood Ave & 97th St,41.71870315475741,-87.59703576564789,8,7
Wood St & Taylor St (Temp),41.869265218438194,-87.67373085021973,2,21
Stony Island Ave & 90th St,41.731394943302355,-87.58574366569519,6,9
Dauphin Ave & 87th St,41.73655902282214,-87.60125756263733,7,8
Torrence Ave & 106th St,41.702800850225906,-87.55972623825073,9,4
Clyde Ave & 87th St,41.73715146431056,-87.57274031639099,10,5
Halsted St & 111th St,41.69226255589166,-87.64261186122894,10,4
Wentworth Ave & 104th St,41.705307996998194,-87.62921690940857,6,9
Michigan Ave & 114th St,41.68701479467118,-87.62105226516724,7,8
Major Taylor Trail & 115th St,41.68493159519296,-87.6452887058258,5,10
Burnham Greenway & 105th St,41.7045750872071,-87.52823173999786,11,0
State St & 123rd St,41.67064383687979,-87.62258648872375,3,12
Major Taylor Trail & 124th St,41.66869635332246,-87.63711333274841,3,12
Eberhart Ave & 131st St,41.658413151101065,-87.61071089698817,6,9
Big Marsh Park,41.68587705562333,-87.57382392883301,4,11
Avenue O & 134th St,41.65186780228521,-87.53967136144637,3,12
Ewing Ave & Burnham Greenway,41.71274876109496,-87.53481388092041,10,2
Avenue O & 118th St,41.68100145911039,-87.5379312226869,6,9
Torrence Ave & 126th Pl,41.66631200825726,-87.55721569061278,5,10
Walden Pkwy & 100th St,41.71216410359803,-87.66773343086243,10,5
Commercial Ave & 130th St,41.659150427597744,-87.55076229572296,12,3
Hale Ave & 107th St,41.699206168127674,-87.66891896724701,9,2
St. Louis Ave & Fullerton Ave,41.92481559681187,-87.71449506282805,10,5
Homewood Ave & 115th St,41.684595072026184,-87.67070800065994,10,5
Ada St & 113th St,41.687561623357375,-87.65547573566435,12,3
Vincennes Ave & 104th St,41.70492556499764,-87.65686810958869,8,7
Western Ave & 111th St,41.691211034981045,-87.68129736185074,17,6
Halsted St & 104th St,41.70513978893236,-87.6424241065979,8,7
Lawndale Ave & 111th St,41.69131919221066,-87.71288573741913,8,7
Damen Ave & Pierce Ave,41.9093960065,-87.6776919292,15,7
Bradley Park,41.717878301935,-87.56459176540375,5,6
Hegewisch Metra Station,41.64850076266409,-87.54608988761902,8,7
New St & Illinois St,41.890847040623804,-87.61861681938171,16,11
Clark St & Winnemac Ave,41.973347640473044,-87.6678554713726,14,3
Southport Ave & Belmont Ave,41.93947775040509,-87.6637476682663,1,14
Commercial Ave & 100th St,41.71331739547703,-87.55109757184982,5,10
Clark St & Lake St,41.88602082773,-87.6308760584,11,14
Clark St & Elmdale Ave,41.990860448125574,-87.66972362995148,5,9
Damen Ave & Cullerton St,41.854966518753926,-87.67569959163664,5,8
St. Clair St & Erie St,41.89434513742426,-87.62279838323593,1,16
Dodge Ave & Main St,42.03463185161588,-87.69918769598006,6,9
Halsted St & 21st St,41.85377981072743,-87.6466029882431,1,10
Clarendon Ave & Gordon Ter,41.95786652415174,-87.64950513839722,5,10
N Clark St & W Elm St,41.902901,-87.631282,0,4
W 103rd St & S Avers Ave,41.705846,-87.717074,9,0
N Carpenter St & W Lake St,41.885586,-87.6531893,3,3
Steelworkers Park,41.738246,-87.531067,4,0
W Oakdale Ave & N Broadway,41.935581,-87.644042,1,5
Public Rack - Avenue L & 114th St,41.6881169,-87.5365497,0,4
S Michigan Ave & E 118th St,41.679804,-87.620843,4,1
S Wentworth Ave & W 111th St,41.6926176,-87.6280518,3,1
Indiana Ave & 133rd St,41.653564,-87.617054,4,1
Maryland Ave & 104th St,41.705588,-87.602938,9,1
N Green St & W Lake St,41.885579,-87.648484,0,7
N Southport Ave & W Newport Ave,41.944019,-87.663975,0,8
N Paulina St & Lincoln Ave,41.943838,-87.671469,7,0
S Aberdeen St & W 106th St,41.701217,-87.649345,2,1
Woodlawn & 103rd - Olive Harvey Vaccination Site,41.707338,-87.59399,9,1
Western Ave & 104th St,41.70458710218908,-87.68120348453522,7,8
Kedzie Ave & 110th St,41.69239474587557,-87.70096063613892,7,4
N Sheffield Ave & W Wellington Ave,41.9362263,-87.6537676,1,5
N Damen Ave & W Chicago Ave,41.895809,-87.678519,0,6
Millard Ave & 26th St,41.84453112462163,-87.71592199802399,6,1
Chicago State University,41.71896342165455,-87.60829567909241,12,11
Kedzie Ave & 104th St,41.7037764,-87.7013952,8,0
Hampden Ct & Diversey Ave,41.9325593,-87.6423847,1,7
W Armitage Ave & N Sheffield Ave,41.917805,-87.653449,1,6
Clinton St & Jackson Blvd,41.878316611830684,-87.64098107814789,15,16
Western Ave & Leland Ave,41.966399801840986,-87.68870428204536,7,11
Calumet Park,41.71370983035615,-87.53084421157837,4,11
Altgeld Gardens,41.656665529673724,-87.59880065917969,8,6
Loomis St & 89th St,41.73237975329554,-87.65806943178177,8,7
Kilbourn Ave & Milwaukee Ave,41.94707089418471,-87.74000823497772,10,5
Elston Ave & Cortland St,41.91643342912655,-87.66674637794495,7,16
Yates Blvd & 93rd St,41.726166390245105,-87.5662761926651,4,11
Eberhart Ave & 91st St,41.729285157254864,-87.6110315322876,11,4
63rd St Beach,41.78091096424803,-87.57632374763489,4,10
Damen Ave & 59th St,41.785861065132,-87.67414391040802,7,4
Central Park Ave & Douglas Blvd,41.862355,-87.7157109,0,9
Lawndale Ave & 16th St,41.8591606,-87.7176965,1,8
Tripp Ave & 15th St,41.860777,-87.7313639,0,9
Spaulding Ave & 16th St,41.85892,-87.707963,1,8
Homan Ave & Fillmore St,41.868114,-87.7109257,0,9
Lamon Ave & Belmont Ave,41.9390108,-87.7492834,8,1
Harding Ave & 26th St,41.8444715,-87.7232647,0,9
Tripp Ave & 31st St,41.836966,-87.730502,0,9
Kildare Ave & 26th St,41.8442315,-87.7321534,6,3
Lavergne & Fullerton,41.923982,-87.7511643,12,0
Cicero Ave & Grace St,41.94973,-87.7469526,0,5
Long Ave & Belden Ave,41.9227049,-87.760954,2,7
Paulina Ave & North Ave,41.90985465216731,-87.66993016004562,5,9
Pulaski Rd & 21st St,41.853452,-87.724541,1,8
Meade Ave & Diversey Ave,41.9309018,-87.7784686,6,2
Long Ave & Belmont Ave,41.9383071,-87.761663,12,0
Kilpatrick Ave & Parker Ave,41.930736,-87.744082,7,2
Parkside Ave & Armitage Ave,41.9169054,-87.7671806,10,0
Keeler Ave & Roosevelt Rd,41.866402,-87.7300171,2,7
Central Ave & Parker Ave,41.9301785,-87.7661217,8,0
Kostner Ave & Wrightwood Ave,41.9279399,-87.7359921,0,9
Mulligan Ave & Wellington Ave,41.9347409,-87.7844017,0,9
Lockwood Ave & Wrightwood Ave,41.9278148,-87.7583757,6,3
Lamon Ave & Armitage Ave,41.9166701,-87.7494873,3,6
Meade Ave & Addison St,41.9459174,-87.7788824,2,7
Central Ave & Roscoe St,41.942258,-87.7669331,4,5
Narragansett Ave & School St,41.940128,-87.7864806,6,2
Elizabeth St & 59th St,41.789696880483376,-87.65469789505005,0,7
Lawndale Ave & 30th St,41.8389124,-87.7168955,9,3
Public Rack - Komensky Ave & 31st St,41.836708,-87.725641,8,0
Kilbourn & Roscoe,41.9427319,-87.7395332,4,5
Long & Irving Park,41.953038,-87.7621632,4,5
Desplaines St & Jackson Blvd,41.87811890091227,-87.64394760131836,13,14
Kilbourn & Belden,41.922352,-87.739024,1,8
Roscoe & Harlem,41.9416062,-87.8072964,0,9
Oketo Ave & Addison St,41.9449659,-87.8118989,10,0
Sayre & Diversey,41.9310084,-87.8010646,4,3
North Ave & New England Ave,41.9092204,-87.7971406,1,8
Harlem Ave & Grace St,41.9488531,-87.806938,2,7
Major Ave & Bloomingdale Ave,41.9125923,-87.7686995,1,7
Menard Ave & Division St,41.902269,-87.7704807,2,6
Orange & Addison,41.9448846,-87.82423,2,7
Oak Park & Wellington,41.934586,-87.7959613,6,3
Harlem & Irving Park,41.9532568,-87.8071434,8,0
Panama Ave & Grace St,41.9476665,-87.829258,6,3
Narragansett & Irving Park,41.952614,-87.7853829,3,5
Kenosha & Wellington,41.9344421,-87.7337799,9,0
Nordica & Medill,41.922278,-87.8020357,2,7
Narragansett & Wrightwood,41.927294,-87.7852027,2,7
Narragansett & McLean,41.9158931,-87.7851104,0,9
Bloomingdale Ave & Harlem Ave,41.9120739,-87.8057657,2,7
Kedzie Ave & 52nd St,41.7990641,-87.703446,4,5
Lamon Ave & Chicago Ave,41.8952,-87.748223,2,7
Monticello Ave & Chicago Ave,41.8952089,-87.7174329,4,2
Doty Ave & 111th St,41.69501044938143,-87.59871482849121,2,13
Kildare Ave & Chicago Ave,41.8954359,-87.7335726,1,8
Kildare Ave & Division St,41.902393,-87.733598,2,7
Long Ave & North Ave,41.909212,-87.760999,5,4
Kedzie Ave & 48th Pl,41.8047515,-87.7041145,6,5
St Louis Ave & Norman Bobbins Ave,41.794422,-87.71137,5,3
Maplewood Ave & 59th St,41.7863375,-87.6874351,5,4
Richmond St & 59th St,41.7865155,-87.6973314,5,3
State St & Randolph St,41.88462107257936,-87.62783423066139,2,20
Western Ave & 62nd St,41.780985,-87.6834204,2,0
Hoyne Ave & 34th St,41.8320245,-87.6778387,4,4
California Ave & 36th St,41.8282301,-87.6945422,7,1
Sacramento Ave & Pershing Rd,41.8222791,-87.6996576,8,1
Rockwell St & Archer Ave,41.823324,-87.689685,7,0
Rockwell St & 57th St,41.7903484,-87.6889201,6,0
Archer Ave & 43rd St,41.8154913,-87.7024412,6,0
Komensky Ave & 55th St,41.793279,-87.724189,6,3
Artesian Ave & 55th St,41.7940135,-87.685807,8,4
Tripp Ave & 65th St,41.7749163,-87.728841,6,3
Damen Ave & 33rd St,41.834108,-87.67559,0,9
Hamlin Ave & 62nd Pl,41.779953,-87.7178221,9,3
Wacker Dr & Washington St,41.88314336439022,-87.63724207878113,0,8
Central Park & Augusta Blvd,41.8989108,-87.7164901,3,6
Springfield Ave & 47th St,41.8080713,-87.7212202,7,2
Kedzie Ave & 57th St,41.789944,-87.703233,6,3
Lincoln Ave & Fullerton Ave,41.924161029067626,-87.64638036489487,8,7
California Ave & 29th St,41.840222,-87.694129,8,1
Leamington Ave & Hirsch St,41.9058405,-87.7548602,3,6
Central Park Ave & Ohio St,41.8918718,-87.7163879,5,4
Campbell Ave & 51st St,41.8009585,-87.6867556,6,3
Fairfield Ave & 44th St,41.813617,-87.6932272,8,1
Spaulding Ave & 63rd St,41.7791655,-87.7056392,0,1
Pulaski Rd & 51st St,41.800434,-87.7247496,7,4
Pulaski Rd & 60th St,41.784186,-87.722564,8,1
St Louis Ave & 59th St,41.785987,-87.7105616,5,4
Kedzie Ave & Bryn Mawr Ave,41.98222975911517,-87.70888656377792,13,2
Kostner Ave & 63rd St,41.778747,-87.732463,6,3
Pulaski & Ann Lurie Pl,41.8162761,-87.7246058,14,0
Lavergne Ave & 46th St,41.80934,-87.7478312,4,4
Kildare Ave & 55th St,41.793357,-87.730598,7,2
Kenneth Ave & 50th St,41.8023156,-87.7344142,7,0
Clark St & Lunt Ave,42.009011180580764,-87.67411172389984,6,13
Public Rack - California Ave & Marquette Rd,41.7715789,-87.6933566,1,1
Lawler Ave & 50th St,41.802209,-87.7489007,8,1
Troy St & Grace St,41.950244,-87.706489,6,3
Albany Ave & Belmont Ave,41.939638,-87.705263,0,8
Milwaukee Ave & Fullerton Ave,41.924691,-87.70055,0,9
Western Ave & Gunnison St,41.969659,-87.68955,0,8
Lincoln Ave & Balmoral Ave,41.979461,-87.693013,2,7
Sacramento Blvd & Polk St,41.870959,-87.700259,1,8
Kilpatrick Ave & Grand Ave,41.9127779,-87.7436434,2,7
Francisco Ave & Hollywood Ave,41.984746,-87.701593,0,9
Lincoln Ave & Peterson Ave,41.990247,-87.70858,1,8
California Ave & Winona St,41.974712,-87.697852,0,6
Richmond St & Lincoln Ave,41.988281,-87.703034,8,0
Rockwell St & Cermak Rd,41.851644,-87.690621,0,9
Menard Ave & North Ave,41.9097167,-87.7702037,2,7
Augusta Blvd & Laramie Ave,41.8986607,-87.7554551,0,9
Elston Ave & George St,41.934003,-87.690823,3,6
Virginia Ave & Catalpa Ave,41.9812456,-87.7048924,2,7
Washtenaw Ave & Peterson Ave,41.99066,-87.697075,4,4
Whipple/Irving Park,41.954189,-87.704448,4,4
Kildare Ave & 47th St,41.807526,-87.7308406,5,1
Kedzie Ave & George St,41.933886,-87.707262,4,5
Francisco Ave & Bloomingdale Ave,41.913959,-87.699368,1,7
Rockwell St & Fletcher St,41.938689,-87.692972,8,1
Francisco Ave & 47th St,41.8084245,-87.696619,9,0
Sheffield Ave & Wellington Ave,41.9362534831413,-87.65266209840775,3,20
Elston Ave & Henderson St,41.941499,-87.701051,1,8
Western Ave & Ardmore Ave,41.9867636,-87.6898796,1,8
Washtenaw Ave & Madison St,41.881286,-87.69396,0,8
Mozart St & Jackson Blvd,41.877507,-87.6974,1,4
Whipple St & Roosevelt Rd,41.866554,-87.701329,0,9
Western Ave & Lake St,41.884606,-87.685853,3,3
Sacramento Blvd & Addison St,41.94609,-87.702988,4,4
Sacramento Blvd & Fulton Ave,41.886528,-87.70167,1,8
Racine Ave & 35th St,41.83068856472101,-87.65621066093445,14,1
Olive Harvey College,41.70958113526255,-87.59023368358612,9,6
Sangamon St & Lake St,41.88577925240433,-87.65102460980414,1,22
Green St & Washington Blvd,41.88318130597391,-87.64872461557388,3,7
Clark St & Berwyn Ave,41.978030622486564,-87.66856491565704,15,3
Jefferson St & Monroe St,41.880329633634624,-87.64274597167967,3,16
Mies van der Rohe Way & Chicago Ave,41.896944626370825,-87.62175768613815,1,14
Halsted St & North Branch St,41.89939028549696,-87.64854490756989,6,7
Halsted St & 18th St,41.85750568031716,-87.64599144458771,7,7
McClurg Ct & Ohio St,41.892592119709725,-87.61728912591934,10,9
Burnham Greenway & 112th St,41.69177385116831,-87.53043115139008,6,9
La Villita Park (Albany/30th),41.8392528,-87.7020207,3,6
Mayfield & Roosevelt Rd,41.8658158,-87.7717805,0,9
Fullerton & Monitor,41.9237918,-87.7723116,6,2
California Ave & 26th St,41.8436799145765,-87.69496858119965,3,8
Rockwell St & 63rd St,41.7787905,-87.6885894,4,2
Kedzie Ave & 45th St,41.8113904,-87.7040052,1,5
State St & Chicago Ave,41.89661720040753,-87.62857854366302,1,10
Washtenaw Ave & Polk St,41.8711028,-87.693683,1,8
California & 16th St,41.859228,-87.695562,0,9
Sacramento Ave & 25th St,41.846506,-87.700139,0,9
N Shore Channel Trail & Argyle St,41.972177,-87.702749,2,7
Albany Ave & 16th St,41.85936,-87.70302,0,9
Lakefront Trail & Bryn Mawr Ave,41.98404411519213,-87.65228122472763,3,16
Shabbona Park,41.944847,-87.799326,2,0
Troy Ave & 27th St,41.84265,-87.70401,1,7
Kildare & Cermak,41.851414,-87.73215,2,6
Plainfield & Irving Park,41.952037,-87.833283,4,5
Homan Ave & 65th St,41.775144,-87.708129,5,4
Campbell Ave & Irving Park Rd,41.953634,-87.690782,2,7
Western Ave & Grace St,41.95039,-87.688234,1,8
Albany Ave & Douglas Blvd,41.86314,-87.703022,2,7
Wallace St & 35th St,41.830707051440854,-87.64125533401966,3,12
Mason Ave & Belmont Ave,41.9383682,-87.7725029,5,3
California Ave & North Ave,41.9104754,-87.6968944,7,4
Damen Ave & Grand Ave,41.892394452962705,-87.67688512802124,14,6
Francisco Ave & Montrose Ave,41.9610471,-87.700901,7,2
Austin Blvd & Lake St,41.88794379427211,-87.77427345514297,8,3
Troy St & Jackson Blvd,41.877505,-87.70485,2,7
Green St & Randolph St*,41.883601657275165,-87.64862671494483,13,2
Bissell St & Armitage Ave*,41.9182955629354,-87.65218332409859,3,10
Lincoln Ave & Roscoe St*,41.9433502470174,-87.67066776752472,4,11
State St & Kinzie St,41.889375466631684,-87.62707650661469,7,21
Pulaski Rd & Congress Pkwy,41.87441021003816,-87.72609159350395,2,9
Damen Ave & 74th St,41.759274039331224,-87.67363429069519,4,7
Burnham Harbor,41.85741178707404,-87.61379152536392,10,12
Public Rack - Lorel Ave & Chicago Ave,41.89503,-87.759917,0,2
Public Rack - Lawndale Ave & Diversey Ave,41.931702,-87.719254,0,1
Public Rack - Kedzie Ave & 63rd St,41.778865,-87.703029,0,0
Public Rack - Kedzie Ave & 64th St - SE,41.776985,-87.702916,0,1
Public Rack - Houston Ave & 91st St,41.729964,-87.549645,0,1
Public Rack - Neva Ave & Grand Ave,41.923604,-87.804659,2,0
Public Rack - Newland Ave & Diversey Ave,41.93098,-87.79944,0,1
Public Rack - Sangamon St & 79th St,41.750395,-87.647464,0,1
Public Rack - 63rd & Western Ave S,41.779196,-87.683589,0,1
Public Rack - Sacramento Blvd & Washington Blvd,41.882994,-87.700036,0,2
Public Rack - Pulaski Rd & 40th St,41.81864,-87.72428,0,2
Public Rack - Newcastle Ave & Belmont Ave,41.938022,-87.7961,0,2
Public Rack - Paul Revere Elementary School,41.764225,-87.600166,0,3
Public Rack - Keef Ave & South Chicago Ave,41.7707,-87.611706,0,1
Public Rack - King Dr & 83rd St,41.743616,-87.61457,0,1
Public Rack - Canty Elementary School,41.947562,-87.829311,0,2
Public Rack - Menard Ave & Agusta Blvd,41.898333,-87.770501,0,1
Public Rack - Mozart Elementary School,41.921325,-87.722375,1,5
Public Rack - Wood St & 103rd St,41.706498,-87.667091,0,1
Public Rack - Calumet Ave & 71st St,41.765537,-87.617305,0,2
Public Rack - Evans Ave & 63rd St,41.780506,-87.607519,0,2
Public Rack - Cottage Grove Ave & 91st St,41.72951,-87.603739,0,1
Public Rack - Baltimore Ave & 133rd St,41.653444,-87.547004,1,1
Public Rack - New England Ave & Grace St,41.949269,-87.798395,0,1
Public Rack - Lake Park Ave & 47th St,41.809797,-87.591824,0,1
Public Rack - Baltimore Ave & 132nd St,41.655201,-87.546942,0,1
Public Rack - Langley Ave & 105th Pl,41.702472,-87.606477,0,2
Public Rack - Pulaski Rd & 51st Rd,41.800111,-87.723537,0,1
Public Rack - Honore St & 87th St - SE,41.735485,-87.668889,0,1
Public Rack - Newcastle Ave & Wellington Ave,41.934997,-87.795777,0,1
Public Rack - Lafayette Ave & 119th St,41.677853,-87.623447,0,1
Public Rack - Marshfield Ave & 45th St,41.812343,-87.666239,0,1
Public Rack - Nagle Ave & Belmont Ave,41.938201,-87.787415,2,0
Public Rack - Harper Ave & 63rd St,41.780728,-87.587566,0,6
Public Rack - St Louis Ave & Berteau Ave,41.958373,-87.715685,0,1
Public Rack - South Shore High School,41.756444,-87.579556,0,3
Public Rack - Cicero Ave & Le Moyne St - midblock,41.906919,-87.74623,0,1
Public Rack - Spaulding Ave & Bryn Mawr Ave,41.982964,-87.711441,1,1
Public Rack - Parnell Ave & 119th St,41.67711,-87.635677,0,1
Public Rack - Hamlin Ave & Grand Ave,41.903738,-87.720287,1,2
Public Rack - Hamlin Ave & Montrose Ave,41.961216,-87.722416,0,3
Public Rack - Menard Ave & Dakin St - midblock,41.951732,-87.772005,2,0
Public Rack - Walden Pkwy & 103rd St,41.706205,-87.668965,0,0
Public Rack - Menard Ave & Belmont Ave,41.9384526,-87.7711009,0,1
Public Rack - Lafayette Ave & 95th St,41.721787,-87.624939,0,10
Public Rack - Michigan Ave & 110th St,41.694364,-87.620715,0,1
Public Rack - Eli Whitney Public School,41.840249,-87.725472,0,1
Public Rack - Monticello Ave & Belmont Ave,41.939472,-87.718423,0,2
Public Rack - Eggleston Ave & 115th St,41.68497,-87.633848,0,3
Public Rack - Prairie Ave & 47th St ,41.809497,-87.618997,0,1
Public Rack - Ewing Ave & 99th St,41.7159614,-87.5351111,0,2
Public Rack - Milwaukee Ave & Addison St,41.94651,-87.735721,0,2
Public Rack - Midway Orange Line,41.785894,-87.738031,0,1
Public Rack - Kenneth Ave & 63rd St W,41.778404,-87.733951,0,10
Public Rack - Halsted St & 95th St - SE,41.721004,-87.643031,0,3
Public Rack - Lawndale Ave & Polk St,41.8707651,-87.7183735,0,2
Public Rack - Central Ave & George St,41.9326579,-87.7662058,0,1
Public Rack - Jeffery Blvd & 67th St,41.773259,-87.576664,0,1
Public Rack - James Madison School,41.759876,-87.590638,0,2
Public Rack - Cicero Ave & North Ave,41.909329,-87.745838,0,1
Public Rack - Kedzie Ave & Archer Ave,41.81359,-87.70478,0,2
Public Rack - Pulaski Rd & Armitage Ave,41.91702,-87.727096,1,1
Public Rack - 83rd St (Avalon Park) Metra,41.743916,-87.598786,0,1
Public Rack - Laramie Ave & Belmont Ave,41.9386855,-87.75563,0,1
Public Rack - Pulaski Rd & Roosevelt Rd,41.866103,-87.724463,0,1
Public Rack - Percy Julian HS,41.705999,-87.65381,0,3
Public Rack - Chappel Ave & 71st St,41.766366,-87.575287,0,2
Public Rack - Oketo Ave & Belmont Ave,41.938117,-87.811862,0,1
Public Rack - Pulaski Rd & 15th St,41.8603966,-87.7250977,0,1
Public Rack - Western Ave & 111th St - NW,41.69197,-87.681659,0,1
Public Rack - Ewing Ave & 112th St,41.691979,-87.534912,0,1
Public Rack - Albany Ave & 63rd St,41.778906,-87.70084,0,1
Public Rack - Western Ave & 111th St - SW,41.69161,-87.681523,0,2
Public Rack - Milwaukee Ave & School St,41.940648,-87.726087,1,0
Public Rack - Stewart Ave & 123rd St,41.670563,-87.632188,0,5
Public Rack - Eberhart Ave & 131st St,41.65759,-87.610713,0,2
Public Rack - Sacramento Blvd & Division St,41.907928,-87.701479,0,3
Public Rack - East End Ave & 75th St,41.75893,-87.582861,0,2
Public Rack - Sacramento Ave & Greenleaf Ave,42.009458,-87.704666,0,6
Public Rack - Martin Luther King Dr & 69th St,41.769234,-87.615206,0,1
Public Rack - Harriet E Sayre Public School,41.913547,-87.79876,0,3
Public Rack - Franklin Park,41.861493,-87.733404,0,2
Public Rack - Mt Greenwood Library N,41.693027,-87.701054,2,0
Public Rack - State St & 47th st,41.809085,-87.627384,0,2
Public Rack - Pulaski Rd & 44th St,41.8129,-87.7225,0,2
Public Rack - Keeler Ave & Madison St S,41.880531,-87.731063,1,2
Public Rack - Melvina Ave & Belmont Ave,41.9384207,-87.7813896,1,0
Public Rack - Mason Ave & Roosevelt Rd,41.865608,-87.772389,0,1
Public Rack - California Ave & Touhy Ave - NW,42.012177,-87.699865,0,1
Public Rack - Avenue O & 118th St,41.681136,-87.54029,0,1
Public Rack - Western Blvd & 53rd St,41.796775,-87.683362,0,1
Public Rack - Marshfield Ave & 87th St,41.735527,-87.663867,0,1
Public Rack - Cottage Grove Ave & 75th St,41.758739,-87.605769,0,1
Public Rack - Ashland Ave & 46th St,41.810537,-87.665404,0,1
Public Rack - Central Ave & Corcoran Pl,41.887342,-87.765041,0,1
Public Rack - Greenwood Ave & Lake Park Ave,41.817372,-87.599576,0,1
Public Rack - Ashland Ave & 45th St,41.811958,-87.664862,0,1
Public Rack - Indiana Ave & 111th St,41.692535,-87.617711,0,9
Public Rack - Wabash Ave & 87th St,41.736063,-87.622952,0,1
Public Rack - Ada St & 95th St,41.72158,-87.65612,0,1
Public Rack - Cicero Ave & Wrightwood Ave,41.927944,-87.7466394,2,2
Public Rack - May St & 63rd St,41.77977,-87.652943,0,1
Public Rack - Michigan Ave & 102nd St,41.7083,-87.61984,0,1
Public Rack - Cicero Ave & Cortland St - midblock,41.91582,-87.746074,0,1
Public Rack - Champlain Ave & 134th St,41.657379,-87.606444,0,2
Public Rack - Kimbark Ave & 63rd St,41.780667,-87.594212,0,2
Public Rack - Central Park Ave & Ogden Ave,41.8543385,-87.7151584,0,3
Public Rack - Spaulding Ave & North Ave,41.910138,-87.709553,0,4
Public Rack - 2302 S Pulaski Rd,41.849437,-87.724879,0,1
Public Rack - Loomis St & 87th St,41.735465,-87.657585,1,0
Public Rack - Kedzie & 103rd St - W,41.705247,-87.701424,0,1
Public Rack - Spencer Elementary Technology Academy,41.884655,-87.750498,0,2
Public Rack - Austin Branch Chicago Public Library,41.889161,-87.765738,0,2
Public Rack - Ewing Ave & 96th St N,41.7215552,-87.5356904,0,1
Public Rack - Brighton Park Branch Chicago Library,41.815242,-87.702651,0,2
Public Rack - Harvey Ave & North Ave,41.909264,-87.782265,0,3
Public Rack - Harvard Ave & 103rd St,41.706863,-87.631674,0,1
Public Rack - Lowe Park,41.799605,-87.641464,0,2
Public Rack - Springfield Ave & 63rd St,41.778582,-87.718925,0,1
Public Rack - Trumbull Ave & 111th St,41.691596,-87.707397,0,1
Public Rack - Tuley (Murray) Park,41.73034,-87.611734,0,2
Public Rack - Vincennes Ave & 87th St,41.735607,-87.645345,0,1
Public Rack - Back of the Yards Park,41.804381,-87.657742,0,1
Public Rack - Ewing Ave & 101st St,41.7117328,-87.5350591,0,1
Public Rack - Morgan St & 103rd St,41.706657,-87.647476,0,2
Public Rack - Vincennes Ave & 99th St,41.712937,-87.653984,0,1
Public Rack - Kedzie Ave & 61st Pl E,41.782281,-87.703047,1,0
Public Rack - Newcastle Ave & Belden Ave,41.921017,-87.797388,0,1
Public Rack - Plainfield Ave & Irving Park Rd,41.952133,-87.833817,0,2
Public Rack - Lafayette Ave & 87th St SW,41.736223,-87.626737,0,0
Public Rack - Karlov Ave & 26th St,41.844287,-87.727078,0,1
Public Rack - Avers Ave & Irving Park Rd,41.953789,-87.724161,0,2
Public Rack - Avers Ave & Archer Ave,41.804487,-87.719584,1,1
Public Rack - Orville T Bright School,41.700168,-87.562148,0,2
Public Rack - Lotus Ave & Harrison St,41.87298,-87.763267,0,1
Public Rack - Parnell Ave & 98th St,41.715983,-87.637067,1,1
Public Rack - Loomis Blvd & 83rd St,41.743271,-87.658769,0,1
Public Rack - Longwood Dr & 95th St,41.720921,-87.669585,0,1
Public Rack - Western Ave & 105th St,41.702609,-87.681492,0,2
Public Rack - Hamlin Ave & Chicago Ave,41.895201,-87.721541,0,0
Public Rack - Sacramento Ave & Devon Ave,41.997575,-87.704649,0,1
Public Rack - Rockwell Ave & Touhy Ave ,42.012344,-87.695383,1,1
Public Rack - Hamilton Park,41.76335,-87.637499,0,1
Public Rack - Avers Ave & Ogden Ave,41.852642,-87.72103,0,2
Public Rack - Western Ave & 104th St - East,41.704366,-87.681733,2,0
Public Rack - Halsted St & 102nd St,41.70794,-87.643177,0,1
Public Rack - Baltimore Ave & 134th St,41.651419,-87.547321,0,1
Public Rack - Central Ave & North Ave,41.909414,-87.765817,0,1
"Public Rack - Senka ""Edward Duke"" Park",41.790565,-87.710992,0,2
Public Rack - Yates Ave & 100th St,41.713437,-87.564405,0,2
Public Rack - California Ave & Devon Ave - NW,41.998481,-87.69985,1,0
Public Rack - California Ave & Pershing Rd,41.822632,-87.695024,4,6
Public Rack - California Ave & Ogden Ave,41.8608706,-87.695681,0,1
Public Rack - Burnside Academy,41.728525,-87.608231,0,2
Public Rack - Cottage Grove & 85th St,41.740086,-87.604743,0,1
Public Rack - Oglesby Ave & 95th St,41.722484,-87.565738,0,1
Public Rack - 63rd & Western Ave N,41.779334,-87.683768,0,1
Public Rack - Avenue M & 132nd St,41.655692,-87.537595,0,2
Public Rack - Avenue J & 112th St,41.691844,-87.534181,0,2
Public Rack - Peoria St & 60th St,41.784872,-87.647482,0,2
Public Rack - Kedzie & 103rd St - East,41.705444,-87.701232,0,1
Public Rack - Mt Greenwood Library - South,41.692883,-87.701048,0,2
Public Rack - Kenton Ave & Palmer St,41.9206781,-87.7419523,3,0
Public Rack - Racine Ave & 74th St,41.759439,-87.654146,0,1
Public Rack - Racine Ave & 76th,41.755786,-87.654054,0,2
Public Rack - 111th St - Morgan Park Metra,41.692738,-87.670569,1,1
Public Rack - Racine Ave & 83rd St,41.743367,-87.653661,0,1
Public Rack - Damen Ave & 47th St,41.808884,-87.67513,0,1
Public Rack - Damen Ave & 80th St,41.748301,-87.673213,0,1
Public Rack - Emerald Ave & 45th St,41.812381,-87.644633,0,1
Public Rack - Marquette Ave & 79th St,41.75163,-87.558707,0,1
Public Rack - Ozark Ave & Addison St,41.945075,-87.820037,0,2
Public Rack - Cottage Grove & 84th St,41.741957,-87.604839,0,1
Public Rack - Kedzie Ave & Pershing Rd,41.822897,-87.704154,0,1
Public Rack - Washtenaw Ave & 63rd St,41.77924,-87.691116,0,2
Public Rack - Archer Park,41.803822,-87.73551,0,2
Public Rack - William Rainey Harper High School,41.775267,-87.669156,0,2
Public Rack - Cottage Grove & 86th St,41.738409,-87.604822,0,1
Public Rack - Morgan St & 95th St,41.721215,-87.647435,0,2
Public Rack - Waller Ave & Chicago Ave,41.894681,-87.768156,0,1
Public Rack - Kildare Ave & Washignton Blvd,41.881838,-87.733661,0,1
Public Rack - Buffalo Ave & 89th St,41.73341,-87.54454,0,3
Public Rack - Austin Ave & Wrightwood Ave,41.927666,-87.775682,0,1
Public Rack - Austin Ave & Wellington Ave,41.9352453,-87.776052,1,0
Public Rack - Roswell B. Mason Elementary School,41.8560219,-87.7298436,0,4
Public Rack - Halsted St & 64th St,41.777436,-87.644535,0,2
Public Rack - Chase Ave & Touhy Ave - NE,42.014539,-87.6901359,0,4
Public Rack - Pulaski Rd & 41st,41.81791,-87.72413,0,2
Public Rack - Panama Ave & Forest Preserve Ave,41.943162,-87.82909,0,2
Public Rack - Rutherford Ave & Belmont Ave,41.938315,-87.793848,0,1
Public Rack - S Kostner Ave & W 18th Pl,41.8551905,-87.7345547,0,0
Public Rack - Kostner Ave & Lake St,41.885708,-87.735424,1,0
Public Rack - Wentworth Ave & 103rd St,41.707257,-87.627826,0,1
Public Rack - Linder Ave & Belmont Ave,41.938743,-87.763298,0,2
Public Rack - Cicero Ave & Wellington Ave,41.935779,-87.746581,0,2
Public Rack - Cicero Ave & Roscoe St,41.9424235,-87.74713,0,1
Public Rack - Prairie Ave & 85th St,41.739986,-87.617645,0,2
Public Rack - Pulaski Rd & Fullerton Ave,41.924618,-87.727398,0,4
Public Rack - Throop St & 58th St,41.788541,-87.65621,0,3
Public Rack - Oleander Ave & Addison St,41.944983,-87.815865,0,3
Public Rack - Kedzie Ave & Argyle St,41.972097,-87.708572,1,1
Public Rack - Western Blvd & 49th St,41.80478,-87.683749,0,1
Public Rack - Mackinaw Ave & 106th St,41.702557,-87.542728,0,1
Public Rack - Central Ave & Adams St,41.878264,-87.764886,0,8
Public Rack - Mackinaw Ave & 85th St,41.741897,-87.543162,0,1
Public Rack - Hermitage & 83rd St,41.743027,-87.666272,0,1
Public Rack - Yale Ave & 119th St,41.677795,-87.629077,0,1
Public Rack - Ewing Ave & 106th St NW,41.70287,-87.535861,0,1
Public Rack - Central Park Ave & Fillmore St,41.8680617,-87.7153897,0,1
Public Rack - Hamilton Ave & 95th St,41.720832,-87.676382,0,2
Public Rack - Ashland Ave & 76th St,41.75596,-87.66391,0,2
Public Rack - Lowe Ave & 94th St,41.724234,-87.639453,0,2
Public Rack - Michigan Ave & 113th St,41.688872,-87.620879,0,1
Public Rack - Austin Ave & Roscoe St,41.942196,-87.776472,1,4
Public Rack - Komensky Ave & 59th St,41.786049,-87.723645,0,0
Public Rack - Hiawatha Park,41.944068,-87.827302,0,1
Public Rack - Perry Ave & 108th Pl,41.696967,-87.626143,0,2
Public Rack - Torrence Ave & 98th St,41.717059,-87.559986,0,2
Public Rack - Talman Ave & 51st St,41.800908,-87.690802,0,2
Public Rack - Vincennes Ave & 95th Pl,41.720562,-87.650971,0,1
Public Rack - Bell Ave & 95th St,41.721188,-87.678786,0,2
Public Rack - Bennett Ave & 96th St,41.720476,-87.577512,0,2
Public Rack - Halsted St & 76th St,41.756003,-87.64409,2,2
Public Rack - Justine St & 87th St,41.736019,-87.66243,0,1
Public Rack - Rockwell & 111th St,41.691359,-87.68572,0,2
Public Rack - Jeffrey Blvd & 71st St,41.766333,-87.576154,0,1
Public Rack - Avenue J & 102nd St,41.709832,-87.534238,0,2
Public Rack - N Narragansett Ave & Grand Ave,41.9225804,-87.7849799,0,1
Public Rack - N Sayre Ave & W Belden Ave,41.921425,-87.800825,0,1
Public Rack - Mackinaw Ave & 108th St,41.699008,-87.542833,0,1
Public Rack - Pittsburgh Ave & Irving Park,41.951911,-87.83267,0,1
Public Rack - Cottage Grove Ave & 111th St,41.692645,-87.609758,0,1
Public Rack - Harding Ave & 47th St,41.807749,-87.722579,0,1
Public Rack - Jeffery Blvd & 83rd St,41.744345,-87.575043,0,1
Public Rack - Western Ave & 92nd Pl,41.725538,-87.681968,0,2
Public Rack - Menard Ave & Adams Blvd,41.877684,-87.769356,0,2
Public Rack - Lawrence Ave & 103rd St,41.707665,-87.608695,0,1
Public Rack - Park Manor Elementary School,41.766863,-87.611467,0,3
Public Rack - Legler Regional Library,41.879312,-87.725428,0,2
Public Rack - Hamlin Ave & Fullerton Ave,41.924319,-87.721446,1,1
Public Rack - Jonathan Y Scammon Public School,41.941612,-87.732372,1,0
Public Rack - Calumet Ave & 103rd St,41.707061,-87.615309,0,1
Public Rack - Forrestville Ave & 47th St,41.809319,-87.612921,0,1
Public Rack - Vincennes Ave & 95th St,41.721168,-87.650663,0,1
Public Rack - West Chatham Park,41.745834,-87.631562,0,2
Public Rack - Abbott Park,41.721696,-87.622278,0,2
Public Rack - Halsted St & 95th St - SW,41.720964,-87.643447,0,1
Public Rack - Michigan Ave & 96th St,41.718957,-87.62067,0,3
Public Rack - Halsted St & 63rd St,41.779945,-87.641378,0,1
Public Rack - Langley Ave & 79th St,41.751103,-87.607432,0,2
Public Rack - Lowell Ave & Elston Ave,41.96614,-87.737,2,0
Public Rack - Western Ave & 79th St,41.750057,-87.682777,0,1
Public Rack - Princeton Ave & 99th Pl,41.713311,-87.631095,0,1
Public Rack - Narragansett Ave & Fullerton Ave,41.92378,-87.7843998,0,2
Public Rack - Western Ave & 104th St - West,41.703952,-87.681953,0,2
Public Rack - Houston Ave & 131st St,41.656961,-87.548521,0,10
Public Rack - Claremont Ave & 71st St,41.764585,-87.682253,0,1
Public Rack - Ewing Ave & Indianapolis Ave,41.712353,-87.53545,0,1
Public Rack - Exchange Ave & 131st St,41.65717,-87.552594,0,1
Public Rack - Oakley & 79th Pl,41.749095,-87.679637,0,1
Public Rack - Damen Ave & 84th St,41.740435,-87.673246,0,1
Public Rack - Ellis Ave & Doty Ave,41.659119,-87.597052,0,2
Public Rack - Eggleston Ave & 114th St,41.686642,-87.633547,0,3
Public Rack - Parnell Ave & 103rd St,41.706868,-87.637208,0,1
Public Rack - Laramie Ave & Grand Ave,41.917002,-87.755972,0,1
Public Rack - Laramie Ave & Warwick Ave,41.948812,-87.75713,0,5
Public Rack - Honore St & 87th St,41.736093,-87.669404,0,1
Public Rack - Latrobe Ave & Lake St,41.887083,-87.756181,0,1
Public Rack - Hyde Park Blvd & 53rd St,41.799468,-87.584206,0,6
Public Rack - Lake Park Ave & 44th St,41.814697,-87.598006,0,1
Public Rack - Zapata Academy,41.841655,-87.734366,0,3
Public Rack - Avondale Ave & Addison St,41.94655,-87.719827,0,4
Public Rack - Keystone Ave & Irving Park Rd,41.953449,-87.729635,0,2
Public Rack - Eggleston Ave & 92nd St,41.726182,-87.63466,0,2
Public Rack - Emil G Hirch Metropolitan High School,41.754442,-87.601745,0,2
Public Rack - Chase Ave & Touhy Ave - NW,42.014271,-87.690408,0,1
Public Rack - Ashland Ave & 71st St,41.76577,-87.66433,0,2
Public Rack - California Ave & Devon Ave - NE,41.99826,-87.699481,0,1
Public Rack - Ashland Ave & 73rd St,41.760817,-87.663499,1,0
Public Rack - California Ave & Cortez St,41.900105,-87.696817,0,2
Public Rack - Albany Ave & 103rd St,41.706747,-87.700047,0,1
Public Rack - Stony Is Ave & 73rd St,41.762265,-87.585469,0,2
Public Rack - Al Raby School,41.886167,-87.714711,0,3
Public Rack - Central Ave & Congress Pkwy,41.87369,-87.764746,0,2
Public Rack - Stony Island & 95th St,41.72228,-87.584943,0,1
Public Rack - Keeler Ave & 26th St,41.844058,-87.729873,0,1
Public Rack - Strohacker Park,41.79482,-87.732112,0,2
Public Rack - Harold Washington Park,41.801089,-87.584791,0,3
Public Rack - Austin Blvd & North Ave,41.909281,-87.775613,0,1
Public Rack - Cottage Grove Ave & 92nd St,41.727319,-87.604787,0,1
Public Rack - Cottage Grove Ave & 98th St,41.716172,-87.60435,0,1
Public Rack - Cottage Grove Ave & 87th St,41.736448,-87.60616,1,0
Public Rack - Avenue J & 106th St,41.70261,-87.533531,0,1
Public Rack - Western Ave & 100th St,41.711666,-87.681963,0,2
Public Rack - Western Ave & 116th St,41.6824,-87.681048,0,1
Public Rack - Menard Ave & Grand Ave,41.9197904,-87.7709818,0,1
Public Rack - Christiana Ave & Belmont Ave,41.93917,-87.71169,2,4
Public Rack - Lafayette Ave & 87th St - NW,41.736354,-87.626741,0,1
Public Rack - Christiana Ave & Archer Ave,41.81175,-87.707577,1,0
Public Rack - Pulaski & 52nd,41.797244,-87.723377,0,1
Public Rack - Brandon Ave & 91st St,41.730218,-87.546758,0,1
Public Rack - Commercial Ave & 89th St,41.733543,-87.551152,0,1
Public Rack - Cicero Ave & Altgeld St,41.925734,-87.746414,1,1
Public Rack - Corliss Ave & 103rd St,41.707622,-87.60355,0,1
Public Rack - Wentworth Ave & 79th St,41.750712,-87.629949,0,1
Public Rack - McVicker Ave & Grand Ave,41.921251,-87.776662,0,1
Public Rack - Homan Ave & 111th St,41.691578,-87.705842,0,1
Public Rack - Chopin Park,41.942675,-87.761899,0,1
Public Rack - California Ave & Touhy Ave - midblock,42.012207,-87.700474,0,1
Public Rack - Kostner Ave & North Ave,41.908816,-87.736463,0,2
Public Rack - Western Ave & Jarvis Ave,42.016398,-87.690376,0,1
Public Rack - Christiana Ave & 55th St,41.793307,-87.707702,0,1
Public Rack - Kedzie Ave & Arthington St,41.8700949,-87.7062429,0,1
Public Rack - Ashland Ave & 45th St  S,41.811169,-87.66474,0,1
Public Rack - Whipple St & 26th St,41.843636,-87.701931,0,2
Public Rack - Western Ave & 106th St - East,41.700576,-87.681294,0,1
Public Rack - Winchester Ave & 87th St,41.735989,-87.672181,0,1
Public Rack - Muskegon Ave & 89th St,41.733044,-87.555652,0,1
Public Rack - Keeler Ave & 55th St,41.79304,-87.728214,0,1
Public Rack - Kolin Ave & Archer Ave,41.800514,-87.731802,1,1
Public Rack - Karlov Ave & Kamerling Ave,41.905621,-87.728636,0,2
Public Rack - Sawyer Ave & 111th St,41.691411,-87.70229,0,1
Public Rack - Bradley Park,41.718353,-87.564459,0,1
Public Rack - Robert Fulton Elementary School,41.797439,-87.668504,0,2
Public Rack - Penn Elementary School / KIPP Ascend Middle School,41.8586742,-87.7223835,0,4
Public Rack - Rhodes Ave & 79th St,41.751058,-87.611439,0,1
Public Rack - McCormick Blvd & Devon Ave,41.996194,-87.712,0,3
Public Rack - Milwaukee Ave & Haussen Ct,41.937752,-87.721623,0,2
Public Rack - Bishop St & 46th St,41.80994,-87.661522,0,1
Public Rack - Hyde Park Blvd & 55th St,41.795,-87.584113,0,1
Public Rack - Lowe Ave & 98th St,41.715887,-87.639228,0,1
Public Rack - Washtenaw Ave & Superior St,41.894738,-87.695204,3,2
Public Rack - Wallace St & 112 St,41.690092,-87.637636,0,3
Public Rack - Buffalo Ave & 133rd St,41.65428,-87.543539,0,2
Public Rack - Princeton Ave & 43rd St,41.815883,-87.633718,1,1
Public Rack - The Montessori School of Englewood,41.76766,-87.66781,0,2
Public Rack - Spaulding Ave & Evergreen Ave,41.905317,-87.709521,0,2
Public Rack - Ewing Ave & 105th St,41.704373,-87.53544,0,1
Public Rack - May St & 78th St,41.752451,-87.652969,0,1
Public Rack - Normal Ave & 72nd St,41.763584,-87.637213,0,3
Public Rack - Kildare Ave & 63rd St,41.778442,-87.73047,0,2
Public Rack - Francisco Ave & Touhy Ave,42.011865,-87.701317,0,2
Public Rack - West Lawn Park,41.774815,-87.728303,0,4
Public Rack - Oglesby Ave & 105th St,41.704672,-87.565519,0,1
Public Rack - California Ave & Touhy Ave - SW,42.011867,-87.700407,0,1
Public Rack - Morgan St & 87th St,41.73577,-87.648133,0,1
Public Rack - Calumet Ave & 51st St,41.802221,-87.618457,0,1
Public Rack - Halsted St & 94th St,41.723442,-87.643612,0,1
Public Rack - Kedzie Ave & 54th St - SW,41.795222,-87.703719,0,1
Public Rack - Kedzie Ave & 58th St,41.788263,-87.703576,1,0
Public Rack - Keystone Ave & North Ave,41.909623,-87.727951,0,1
Public Rack - Kedvale Ave & 63rd St E,41.778768,-87.725957,0,2
Public Rack - Albany Ave & 111th St - NW,41.691669,-87.698507,0,1
Public Rack - Kedzie Ave & 64th St - SW,41.777031,-87.703223,0,2
Public Rack - Halsted St & 77th St,41.753637,-87.643918,0,1
Public Rack - Kimbark Ave & 67th St,41.774045,-87.594322,0,2
Public Rack - Laramie Ave & Fullerton Ave,41.9240754,-87.7568589,1,1
Public Rack - Stony Island Ave & 86th St,41.738473,-87.585851,0,1
Public Rack - Milwaukee Ave & Diversey Ave,41.93123,-87.711501,0,2
Public Rack - Michele Clark Magnet High School,41.872849,-87.753432,0,2
Public Rack - Menard Ave & Madison St,41.880021,-87.770325,0,2
Public Rack - Calumet Ave & 133rd St,41.653975,-87.614225,0,2
Public Rack - Ada St & 117th St,41.681128,-87.655064,0,1
Public Rack - Nordica Ave & Addison St,41.945428,-87.803458,0,1
Public Rack - Kedvale Ave & Avondale Ave,41.952874,-87.731229,0,1
Public Rack - Piotrowski Park,41.836682,-87.73083,0,2
Public Rack - Kedzie Ave & 54th St - SE,41.794326,-87.703471,1,0
Public Rack - Kimball Ave & Carmen Ave,41.973896,-87.713297,0,3
Lavergne Ave & Division St,41.902513,-87.750869,0,9
Eberhart Ave & 61st St,41.784071072761,-87.61448353528975,3,8
Wells St & Polk St,41.872731542263075,-87.63351649045944,11,4
Public Rack - Lawndale Ave & 111th St,41.691501,-87.71332,0,1
Public Rack - East End Ave & 87th St,41.737054,-87.583998,0,1
Public Rack - Pullman - Planet Fitness,41.69782,-87.59779,0,1
Public Rack - Grand Ave & North Ave,41.909614,-87.734722,0,2
Public Rack - Ingleside Ave & 79th St,41.751448,-87.601136,0,1
Public Rack - Prairie Ave & Garfield Blvd S,41.794344,-87.619062,0,10
Public Rack - Calumet Ave & Garfield Blvd,41.794886,-87.617415,0,1
Public Rack - Normal Blvd & 61st Pl,41.782314,-87.637358,0,2
Public Rack - Racine Ave & 109th Pl,41.694835,-87.653041,2,0
Public Rack - Torrence Ave & 103rd St,41.70843,-87.56026,0,1
Public Rack - Ada St & 119th St,41.677326,-87.654473,0,1
Public Rack - Bishop St & 81st St,41.745827,-87.659849,0,2
Public Rack - Throop St & 109th Pl,41.694944,-87.654377,2,2
Public Rack - Torrence Ave  & 106th St,41.702566,-87.559923,0,1
Public Rack - Halsted St & 41st St,41.820147,-87.64568,0,1
Public Rack - 532 E 43rd St,41.816847,-87.613294,0,1
Public Rack - Martin Luther King Dr & 44th St,41.814445,-87.616265,0,2
Public Rack - Pullman - Ross Dress for Less,41.69868,-87.597,0,1
Public Rack - Pullman Community Center,41.70428,-87.59313,0,1
Public Rack - Michigan Ave & 119th St,41.677934,-87.620754,0,1
Public Rack - Laflin St & 51st St,41.801354,-87.662076,0,2
Public Rack - Colfax Ave & 83rd St,41.744818,-87.561055,0,2
Public Rack - Wood St & 47th St,41.80864,-87.669974,0,1
Public Rack - Pullman - Walmart,41.69696,-87.59829,0,1
Public Rack - Kilbourn Ave & Fullerton Ave,41.924447,-87.73998,1,0
Public Rack - Kedvale Ave & Addison St,41.947174,-87.730837,0,2
Public Rack - Karlov Ave & Milwaukee Ave,41.942702,-87.730011,0,1
Public Rack - Wolcott Ave & 61st St,41.782378,-87.671719,0,4
Public Rack - Wolcott Ave & 56th St,41.791198,-87.671949,0,2
Public Rack - Emerald Ave & 43rd St,41.81643,-87.644754,0,2
Public Rack - Kostner Ave & Armitage Ave,41.917211,-87.736136,4,0
Public Rack - Michigan Ave & 121st St,41.67413,-87.620448,0,1
Public Rack - Western Ave & 106th St - West,41.701379,-87.681826,0,1
Public Rack - Cottage Grove Ave & 89th Pl,41.731767,-87.604899,0,1
Public Rack - Halsted St & 80th St,41.748175,-87.644238,0,1
Public Rack - Walden Pkwy & 99th St,41.71397,-87.667798,0,1
Public Rack - 10101 S Stony Island Ave,41.70838,-87.581455,0,2
Public Rack - Bensley Ave & 103rd St,41.7084,-87.56319,0,1
Public Rack - Christiana Ave & 111th St,41.69137,-87.704809,0,1
Public Rack - Western Ave & 118th St,41.678349,-87.680919,2,0
Public Rack - Homan Ave & 26th St,41.84456,-87.710058,0,1
Public Rack - Hale Ave & 111th St,41.691801,-87.671351,0,1
Public Rack - Sawyer Ave & Lawrence Ave,41.9683,-87.709435,0,1
Public Rack - Spaulding Ave & Foster Ave,41.975921,-87.710415,0,1
Public Rack - Homewood Ave & Monterey Ave,41.691691,-87.670161,0,1
Public Rack - Michigan Ave & 125th Pl,41.666395,-87.619933,0,1
Public Rack - Troy & 111th St,41.691373,-87.700281,0,1
Public Rack - Hoyne Ave & 110th Pl,41.692458,-87.674035,3,0
Public Rack - Baker Ave & 863rd Pl,41.743346,-87.550582,0,1
Public Rack - Marquette Ave & 83rd St,41.74476,-87.558624,0,1
Public Rack - Lowe Ave & 119th St,41.677708,-87.638711,0,1
Public Rack - Ada St & 79th St,41.750522,-87.657252,0,2
Public Rack - Aida Food Market,41.749896,-87.643693,0,1
Public Rack - Halsted St & 111th St,41.691838,-87.642747,0,1
Public Rack - Ellis Ave & 132nd Pl,41.655139,-87.597597,0,1
Public Rack - Corliss Ave & 133rd St,41.653138,-87.601057,0,5
Public Rack - Milwaukee Ave & Waveland Ave,41.947472,-87.737875,0,1
Public Rack - Drexel Ave & 87th St,41.736783,-87.602241,0,1
Public Rack - Green St & 103rd St,41.70665,-87.643422,0,1
Public Rack - Christiana Ave & Lawrence Ave,41.968547,-87.712582,0,2
Public Rack - Greenwood Ave & 87th St,41.736263,-87.596634,0,1
Public Rack - Maryland Ave & 87th ST,41.736995,-87.603968,0,1
Public Rack - Christiana Ave & Bryn Mawr Ave,41.982838,-87.71233,0,1
Public Rack - Elizabeth St & 115th St,41.684942,-87.65266,0,1
Public Rack - Western Ave & 111th St - SE,41.691665,-87.681022,0,1
Public Rack - Longwood Dr & 111th St,41.69163,-87.671782,0,2
Public Rack - Yates Blvd & Exchange Ave,41.765088,-87.565918,0,2
Public Rack - Harvard Ave & 119th St,41.678227,-87.630775,1,0
Public Rack - Kildare Ave & Division Ave,41.902405,-87.732699,0,1
Public Rack - Laflin St & 79th St,41.750326,-87.66168,1,0
Public Rack - Sawyer Ave & Bryn Mawr Ave - SE,41.9830174,-87.7096999,1,0
Public Rack - Sawyer Ave & Bryn Mawr Ave - SW,41.982879,-87.710534,0,1
MTV Hubbard St,41.8897772,-87.680351,3,3
Lincoln Ave & Belmont Ave (Temp),41.93953161982257,-87.6711143553257,4,10
Public Rack - Stony Island & 87th St,41.7367,-87.585815,0,1
Public Rack - Kingston Ave & 75th St,41.758905,-87.562188,0,1
Public Rack - Houston Ave & 130th St,41.658962,-87.548528,0,1
Public Rack - State ST & 42nd St,41.819067,-87.626417,0,1
Public Rack - Exchange Ave & 73rd Pl,41.76261263,-87.56381871,0,1
Public Rack - King Dr & Oakwood Blvd,41.822827,-87.616486,0,1
Public Rack - King Dr & 115th St,41.685239,-87.613418,0,1
Public Rack - Vincennes Ave & 91st St,41.728122,-87.648524,0,1
Public Rack - Jeffery Blvd & 81st St,41.74927751,-87.57585394,0,1
Public Rack - Eberhart Ave & 61st St,41.783745,-87.612919,0,1
Public Rack - Washtenaw Ave & Devon Ave,41.997764,-87.697221,4,0
Public Rack - Western Ave & Devon Ave,41.997579,-87.689713,0,1
Public Rack - Saginaw Ave & 93rd St,41.726199,-87.559252,0,1
Public Rack - South Shore Dr & 71st St,41.766206,-87.562789,0,2
Public Rack - Lorel Ave & Grand Ave,41.9176685,-87.7595531,0,10
Public Rack - Paxton Ave & 79th St,41.75167773,-87.57045748,0,1
Public Rack - Campbell Ave & Pratt Blvd,42.00507,-87.692643,1,0
Public Rack - Woodlawn Ave & 63rd St N,41.780621,-87.596033,1,0
Public Rack - Woodlawn Ave & 63rd St S,41.779484,-87.596028,0,1
Public Rack - Vincennes Ave & 77th St,41.75702837,-87.56497151,0,1
Public Rack - Lake Shore Dr & Hayes Dr,41.780581,-87.574562,0,1
Public Rack - Crandon Ave & 80th St,41.749519,-87.568831,0,1
Public Rack - Kostner Ave & 16th St,41.8588018,-87.7343019,0,1
Public Rack - Langley Ave & Oakwood Blvd,41.822839,-87.609525,0,2
Public Rack - Lawndale Ave & 63rd St,41.7787155,-87.7140552,0,1
Public Rack - 53rd St & Indiana Ave,41.798015,-87.620745,0,1
Public Rack - Jensen Park,41.964864,-87.720774,1,0
Public Rack - Prairie Ave & Garfield Blvd N,41.79480875,-87.61890696,0,1
Public Rack - Drake Ave & Leland Ave,41.9659853,-87.716876,0,2
Public Rack - Cornell Ave & 87th Pl,41.73688127,-87.58314552,0,1
Public Rack - Michigan Ave & 107th St,41.699671,-87.621034,0,1
Western Ave & Berteau Ave,41.95774,-87.688273,11,0
Martin Luther King Dr & 111th St,41.69263895647179,-87.61367386484747,6,0
Public Rack - Lamon Ave & Erie St,41.892114,-87.746676,0,3
Public Rack - Leclaire Ave & Division St,41.90205,-87.75305,0,0
Public Rack - Ave N & 106th St,41.702616,-87.538744,0,1
Public Rack - Halsted St & 109th St,41.695655,-87.642804,0,1
Public Rack - Langley Ave & 87th St,41.735828,-87.606981,0,1
Public Rack - Western Ave & 96th St,41.718621,-87.681516,0,1
Public Rack - Pulaski Rd & Lexington St,41.8715832,-87.7252086,0,1
Public Rack - Lockwood Ave & Diversey Ave,41.931541,-87.75904,1,0
Public Rack - Halsted St & 113th St,41.68851,-87.642512,0,1
Public Rack - Fullerton Ave & Narragansett Ave,41.923739,-87.785835,0,1
Public Rack - Langley Ave & 49th St,41.805218,-87.609076,0,3
Public Rack - Western Ave & 107th Pl,41.698022,-87.681175,0,1
Public Rack - Western Ave & 98th St,41.71525,-87.681698,0,1
Public Rack - Western Ave & 107th St,41.698728,-87.681558,1,0
Public Rack - Western Ave & 110th St,41.69442,-87.681547,2,1
Public Rack - Michigan Ave & 67th St,41.772068,-87.621686,0,2
Public Rack - Union Ave & 111th St,41.692232,-87.640609,0,1
Public Rack - Pulaski Rd & Lake St,41.885577,-87.72606,0,1
Public Rack - Ewing Ave & 107th St,41.700378,-87.535276,0,1
Public Rack - Central Park Ave & 16th St,41.858938,-87.7157269,0,1
Public Rack - Normal Ave & 111th St,41.692303,-87.635478,0,1
Public Rack - Fullerton Ave & Lavergne Ave,41.92398,-87.75195,0,1
Public Rack - Ewing Ave & 95th St,41.722376,-87.5358299,0,1
Public Rack - Perry Ave & 111th St,41.692666,-87.626385,0,1
Public Rack - Ashland Ave & 91st St,41.728271,-87.662673,0,1
Public Rack - Wallace St & 119th St,41.677629,-87.637554,0,1
Public Rack - Marquette Rd & 67th St,41.773095,-87.612886,0,2
Public Rack - King Dr & 71st St,41.765862,-87.614787,0,2
Public Rack - Champlain Ave & 65th St,41.775904,-87.609301,2,0
Public Rack - Ewing Ave & 102nd St,41.709948,-87.535365,0,1
Public Rack - Pulaski Rd & 5th Ave,41.8730082,-87.7252516,0,1
Public Rack - Princeton Ave & 103rd Pl,41.70633,-87.630936,0,1
Public Rack - Ashland Ave & 83rd St,41.742715,-87.663551,0,1
Public Rack - Ave L & 105th St,41.703542,-87.536634,0,1
Public Rack - La Moyne Ave and Leamington Ave,41.906866,-87.754447,0,2
Public Rack - 10557 S Western Ave,41.701719,-87.68128,0,2
Public Rack - Roscoe St & Osceola Ave,41.942201,-87.813168,0,1
Public Rack - Clyde Ave & 87th St,41.73715,-87.57319,0,3
Public Rack - Ashland Ave & 63rd St,41.779127,-87.664039,0,1
Public Rack - Prairie Ave & 78th St,41.752229,-87.617995,0,3
Public Rack - Laporte Ave & Armitage Ave,41.917047,-87.750008,0,1
Public Rack - Ewing Ave & 106th St,41.7024928,-87.5351313,0,1
Public Rack - Pulaski Rd & Polk St,41.8703637,-87.7252556,0,1
Public Rack - Peterson Ave & Drake Ave,41.990119,-87.717337,0,2
Public Rack - Peterson Ave & Bernard Ave,41.990234,-87.715634,0,1
Public Rack - Richmond St & Thorndale Ave,41.988931,-87.702785,0,10
Public Rack - Hamlin Ave & Madison St,41.880833,-87.720797,0,1
Public Rack - Pulaski Rd & Flournoy St,41.8724252,-87.7253448,0,1
Public Rack - Kostner Ave & Diversey Ave,41.931803,-87.737285,0,1
Public Rack - Kostner Ave & Wrightwood Ave,41.92786,-87.735756,0,9
Public Rack - Foster Ave & Drake Ave,41.975563,-87.717352,0,2
Sheridan Rd & Argyle St,41.97328682025979,-87.65475958585739,8,7
Wood St & Webster Ave,41.92105672992757,-87.67279744148254,6,13
Cottage Grove Ave & 63rd St,41.78053094070882,-87.6059702038765,4,10
Wilton Ave & Belmont Ave,41.940231918108594,-87.65294373035431,5,22
Buckingham Fountain,41.876423,-87.620339,24,8
Public Rack - Komensky Ave & 63rd St,41.77882,-87.723599,2,0
Public Rack - Lawndale & 63rd St,41.777732,-87.713878,0,1
Public Rack - Kedzie Ave & 60th St,41.785235,-87.703131,0,1
Public Rack - Western Ave & 62nd St,41.780964,-87.683757,0,1
Public Rack - Kedvale Ave & 63rd St W,41.778761,-87.726892,0,1
Public Rack - Western Blvd & 52nd St,41.798974,-87.681909,0,1
Public Rack - Kedzie Ave & 54th Pl,41.794639,-87.703767,0,1
Public Rack - Kenneth Ave & 63rd St E,41.778411,-87.733387,1,0
Public Rack - Sangamon St & 87th St,41.73582,-87.646896,0,1
Public Rack - Brainerd Park,41.726942,-87.654896,0,2
Public Rack - Pulaski Rd & 65th St,41.773551,-87.722805,0,2
Public Rack - Loomis Blvd & 47th St,41.808746,-87.66026,0,1
Public Rack - Oakley Ave & 50th Pl,41.80193,-87.680903,0,1
Public Rack - Hoyne Ave & 51st St,41.801001,-87.676773,0,2
Public Rack - Ewing Ave & 96th St S,41.720634,-87.53517,0,1
Public Rack - Kedzie Ave & 61st Pl W,41.78201,-87.7034,0,1
Public Rack - Kedzie Ave & 62nd Pl,41.780148,-87.703338,0,1
Public Rack - May St & 87th St,41.73556,-87.651701,0,1
Public Rack - Whipple St & 63rd St,41.77888,-87.699811,0,1
Public Rack - Maplewood Ave & 47th St,41.808413,-87.688535,0,1
Public Rack - Maplewood Ave & 63rd St,41.779343,-87.686763,0,1
Public Rack - Homan Ave & 62nd Pl,41.779668,-87.707834,0,1
Public Rack - Throop St & 48t ST,41.806999,-87.657942,0,1
Public Rack - Talman Ave & Pershing Rd,41.822592,-87.690725,0,1
Public Rack - Western Ave & 47th Pl,41.808038,-87.684709,0,1
Public Rack - Fairfield Ave & 63rd St,41.77926,-87.692703,0,1
Public Rack - Ashland Ave & 74th St,41.759735,-87.663736,0,2
Public Rack - Kedzie Ave & Chicago Ave,41.89556,-87.70641,0,1
Public Rack - Washington Park Ct & 51st St,41.8021917,-87.6151444,0,2
Public Rack - Tripp Ave & North Ave,41.90995395,-87.73271446,0,2
Public Rack - Garfield Park Conservatory,41.88658,-87.716646,1,1
Public Rack - Kildare Ave & North Ave,41.909866,-87.73399,1,0
Public Rack - Division St & Christiana Ave,41.90254,-87.71085,0,2
Public Rack - Lawndale Ave & 23rd St,41.849956,-87.716712,0,2
Public Rack - Sawyer Ave & Chicago Ave,41.8954597,-87.7080933,0,1
Public Rack - Kedzie Ave & Walnut St,41.885891,-87.706425,0,1
Public Rack - Pulaski Rd & Grenshaw St,41.8670279,-87.7254644,0,1
Public Rack - Homan Ave & Roosevelt,41.86649,-87.710786,0,1
Public Rack - Independence Blvd & Roosevelt,41.8662123,-87.7184969,0,1
Public Rack - Lawndale Ave & Roosevelt,41.866225,-87.717918,0,2
Public Rack - Homan Ave & Lake St,41.88474,-87.711357,0,2
Public Rack - Central Park Ave & Fulton Blvd,41.8861512,-87.7155114,0,2
Public Rack - Kedvale Ave & 26th St,41.844265,-87.728103,0,1
Public Rack - Rockwell & Division,41.90282,-87.692397,0,1
Public Rack - Grand Ave & Lawndale Ave,41.9035,-87.7204,0,2
Public Rack - Komensky Ave & 26th St,41.844168,-87.726317,1,0
Public Rack - St Louis Ave & Flournoy St,41.8727811,-87.7131562,0,1
Morgan St & Lake St*,41.88549170626906,-87.65228927135468,1,19
Eastlake Ter & Howard St,42.01920250193227,-87.66430288553238,6,9
Clinton St & Madison St,41.882751965685614,-87.64119029045105,2,25
Elizabeth St & Fulton St,41.88671077318443,-87.65965729951859,3,12
Southport Ave & Wellington Ave,41.93577461766458,-87.66360014677048,11,8
Wabash Ave & 83rd St,41.743359762253235,-87.62284398078917,8,3
Wabash Ave & 87th St,41.73655301831962,-87.62264415621758,3,8
Clark St & Leland Ave,41.96708783918421,-87.66729086637497,3,15
Wells St & Institute Pl,41.89737986072316,-87.63442039489746,2,9
Paulina St & Flournoy St,41.873061087897916,-87.66913488507271,7,24
Loomis St & Lexington St,41.87222873224032,-87.66136385500431,13,1
Green St & Madison St,41.881859328038225,-87.64926373958588,21,2
Ashland Ave & Chicago Ave,41.89595435734305,-87.6677280664444,10,4
Kimball Ave & Belmont Ave,41.93939395344302,-87.71206766366959,3,12
California Ave & 21st St,41.853795793473395,-87.69582286477088,2,13
Calumet Ave & 18th St,41.85761755293753,-87.61941075325012,9,4
Racine Ave & 65th St,41.775393,-87.654308,8,3
Canal St & Madison St,41.882409,-87.639767,6,19
Racine Ave & Fullerton Ave,41.925566,-87.658416,5,14
Stony Island Ave & 63rd St,41.780506,-87.586853,1,10
Artesian Ave & Hubbard St,41.8895,-87.688257,26,0
Campbell Ave & Montrose Ave,41.961524,-87.691177,6,9
Elizabeth St & Randolph St,41.884336,-87.658902,4,7
Michigan Ave & 18th St,41.857813,-87.62455,12,9
Michigan Ave & Lake St,41.886022,-87.624398,2,22
Halsted St & Fulton St,41.886871,-87.648089,1,18
Indiana Ave & Roosevelt Rd,41.867888,-87.623041,12,24
Lincoln Ave & Byron St,41.952372,-87.677296,8,7
Wentworth Ave & Cermak Rd*,41.853214418519656,-87.63187229633331,9,6
Kedzie Ave & 24th St (Temp),41.846357,-87.704966,8,3
Hastings LWS,41.8635164,-87.6797485,0,6
